[
  {
    "name": "MADHA",
    "code": "MA",
    "utterances": [],
    "name_hi": "मढ़ा",
    "district": "Solapur",
    "state": "Maharashtra",
    "trainCount": "6",
    "latitude": 18.029712,
    "longitude": 75.546507,
    "address": "Madha, Maharashtra 413209"
  },
  {
    "name": "MAVAL",
    "code": "MAA",
    "utterances": [],
    "name_hi": "मावल",
    "district": "Sirohi",
    "state": "Rajasthan",
    "trainCount": "0",
    "latitude": 24.432277,
    "longitude": 72.70044,
    "address": "National Highway 14, Rajasthan"
  },
  {
    "name": "MANDI BAMORA",
    "code": "MABA",
    "utterances": [],
    "name_hi": "मंडी बामौरा",
    "district": "Sagar",
    "state": "Madhya Pradesh",
    "trainCount": "23",
    "latitude": 24.054032,
    "longitude": 78.08243700000001,
    "address": "Mandi Bamora, Madhya Pradesh 464224"
  },
  {
    "name": "AYODHYA DHAM JN",
    "code": "AY",
    "utterances": [
      "faizabad",
      "ayodhya",
      "AYODHYA",
      "AYODHYA DHAM",
      "Ram mandir"
    ],
    "name_hi": "अयोध्या धाम जंक्शन",
    "district": "Ayodhya",
    "state": "Uttar Pradesh",
    "trainCount": "46",
    "latitude": 26.78999944049032,
    "longitude": 82.20022469747603,
    "address": "Dharmakata, Ayodhya, Uttar Pradesh 224123"
  },
  {
    "name": "MAHBUBABAD",
    "code": "MABD",
    "utterances": [],
    "name_hi": "महबूबाबाद",
    "district": "Mahabubabad",
    "state": "Telangana",
    "trainCount": "49",
    "latitude": 17.597561,
    "longitude": 79.999792,
    "address": "Mahbubabad, Andhra Pradesh"
  },
  {
    "name": "MATANA BUZURG",
    "code": "MABG",
    "utterances": [],
    "name_hi": "मतना बुज़ुर्ग",
    "district": "Ujjain",
    "state": "Madhya Pradesh",
    "trainCount": "0",
    "latitude": 23.1138506265,
    "longitude": 75.8671171741,
    "address": "Matanakalan, Madhya Pradesh 456664"
  },
  {
    "name": "MACHIYALA",
    "code": "MAC",
    "utterances": [],
    "name_hi": "मचियाला",
    "district": "#N/A",
    "state": "Gujarat",
    "trainCount": "0",
    "latitude": 21.65908325,
    "longitude": 71.2368536,
    "address": "Nana Machiyala, Gujarat 365601"
  },
  {
    "name": "MADDUR",
    "code": "MAD",
    "utterances": [],
    "name_hi": "मद्दुर",
    "district": "Mandya",
    "state": "Karnataka",
    "trainCount": "27",
    "latitude": 12.604742,
    "longitude": 77.049522,
    "address": "Mandya District, Karnataka"
  },
  {
    "name": "MAONDA",
    "code": "MADA",
    "utterances": [],
    "name_hi": "मोंदा",
    "district": "Sikar",
    "state": "Rajasthan",
    "trainCount": "0",
    "latitude": 27.809478,
    "longitude": 75.827673,
    "address": "State Highway 13, Rajasthan"
  },
  {
    "name": "MADHAPUR ROAD",
    "code": "MADP",
    "utterances": [],
    "name_hi": "माधापुर रोड",
    "district": "Kutch",
    "state": "Gujarat",
    "trainCount": "0",
    "latitude": 23.242661000000002,
    "longitude": 69.716415,
    "address": "Junavas, Madhapar, Bhuj, Gujarat 370020"
  },
  {
    "name": "MATHERAN",
    "code": "MAE",
    "utterances": [],
    "name_hi": "माथेरान",
    "district": "Raigad",
    "state": "Maharashtra",
    "trainCount": "0",
    "latitude": 18.989244,
    "longitude": 73.270911,
    "address": "Matheran, Maharashtra"
  },
  {
    "name": "MANUR",
    "code": "MAF",
    "utterances": [],
    "name_hi": "मनुर",
    "district": "Thiruvallur",
    "state": "Tamil Nadu",
    "trainCount": "0",
    "latitude": 13.096025,
    "longitude": 79.801508,
    "address": "Manavur, Tamil Nadu 631210"
  },
  {
    "name": "MANGALAGIRI",
    "code": "MAG",
    "utterances": [],
    "name_hi": "मंगलगिरि",
    "district": "Guntur",
    "state": "Andhra Pradesh",
    "trainCount": "18",
    "latitude": 16.438256,
    "longitude": 80.564992,
    "address": "Mangalagiri, Amaravati, Andhra Pradesh 522503"
  },
  {
    "name": "MANIKGARH",
    "code": "MAGH",
    "utterances": [],
    "name_hi": "मणिकगढ़",
    "district": "Chandrapur",
    "state": "Maharashtra",
    "trainCount": "4",
    "latitude": 19.787693,
    "longitude": 79.398527,
    "address": "Manikgarh Station Platform 1, Chunala, Maharashtra 442905"
  },
  {
    "name": "MADHOGANJ",
    "code": "MAH",
    "utterances": [],
    "name_hi": "माधोगंज",
    "district": "Hardoi",
    "state": "Uttar Pradesh",
    "trainCount": "0",
    "latitude": 27.117963000000003,
    "longitude": 80.135457,
    "address": "Hardoi, Uttar Pradesh"
  },
  {
    "name": "MAHE",
    "code": "MAHE",
    "utterances": [],
    "name_hi": "माहे",
    "district": "Mahe",
    "state": "Puducherry",
    "trainCount": "22",
    "latitude": 11.699226999999999,
    "longitude": 75.546967,
    "address": "Mahe, Puducherry"
  },
  {
    "name": "MAHOLI",
    "code": "MAHO",
    "utterances": [],
    "name_hi": "महोली",
    "district": "Sitapur",
    "state": "Uttar Pradesh",
    "trainCount": "1",
    "latitude": 27.64872,
    "longitude": 80.47707299999999,
    "address": "Sitapur, Uttar Pradesh 261141"
  },
  {
    "name": "MEHSI",
    "code": "MAI",
    "utterances": [],
    "name_hi": "मेहसी",
    "district": "Purba Champaran",
    "state": "Bihar",
    "trainCount": "17",
    "latitude": 26.354898000000002,
    "longitude": 85.096319,
    "address": "Mehsi, Bihar"
  },
  {
    "name": "MAJHERGRAM",
    "code": "MAJ",
    "utterances": [],
    "name_hi": "माझेरग्राम",
    "district": "Nadia",
    "state": "West Bengal",
    "trainCount": "0",
    "latitude": 23.6224849,
    "longitude": 88.28352,
    "address": "Majhergram, West Bengal 741137"
  },
  {
    "name": "MALLIKPUR",
    "code": "MAK",
    "utterances": [],
    "name_hi": "मलिकपुर",
    "district": "South 24 Parganas",
    "state": "West Bengal",
    "trainCount": "0",
    "latitude": 22.396985,
    "longitude": 88.43331500000001,
    "address": "Kolkata, West Bengal"
  },
  {
    "name": "MALA",
    "code": "MALA",
    "utterances": [],
    "name_hi": "माला",
    "district": "Pilibhit",
    "state": "Uttar Pradesh",
    "trainCount": "0",
    "latitude": 28.592851,
    "longitude": 79.916972,
    "address": "Pilibhit, Uttar Pradesh"
  },
  {
    "name": "MANTHRALAYAM RD",
    "code": "MALM",
    "utterances": [],
    "name_hi": "मंत्रालयम रद",
    "district": "Kurnool",
    "state": "Andhra Pradesh",
    "trainCount": "60",
    "latitude": 15.949035,
    "longitude": 77.299196,
    "address": "Dibbanadoddi, Andhra Pradesh 518349"
  },
  {
    "name": "MALIYA",
    "code": "MALX",
    "utterances": [],
    "name_hi": "मालिया",
    "district": "",
    "state": "",
    "trainCount": "0",
    "latitude": "",
    "longitude": "",
    "address": ""
  },
  {
    "name": "MANGAL MAHUDI",
    "code": "MAM",
    "utterances": [],
    "name_hi": "मंगल महुडी",
    "district": "Dahod",
    "state": "Gujarat",
    "trainCount": "1",
    "latitude": 22.83578,
    "longitude": 74.058492,
    "address": "Dabhada, Gujarat 389140"
  },
  {
    "name": "MANINAGAR",
    "code": "MAN",
    "utterances": [],
    "name_hi": "मणिनगर",
    "district": "Ahmadabad",
    "state": "Gujarat",
    "trainCount": "36",
    "latitude": 23.000142,
    "longitude": 72.610413,
    "address": "Karachi Building, Mani Nagar Estate Rd, Maninagar, Ahmedabad, Gujarat 380008"
  },
  {
    "name": "MANA",
    "code": "MANA",
    "utterances": [],
    "name_hi": "मन",
    "district": "Akola",
    "state": "Maharashtra",
    "trainCount": "0",
    "latitude": 20.761491,
    "longitude": 77.469063,
    "address": "Akola, Maharashtra 444106"
  },
  {
    "name": "MANDURAI",
    "code": "MAND",
    "utterances": [],
    "name_hi": "मंडराई",
    "district": "Tiruchirappalli",
    "state": "Tamil Nadu",
    "trainCount": "0",
    "latitude": 10.873068,
    "longitude": 78.78619599999999,
    "address": "Lalgudi Police Jurisdiction Limits, Tamil Nadu"
  },
  {
    "name": "MANWA",
    "code": "MANW",
    "utterances": [],
    "name_hi": "मनवा",
    "district": "Sitapur",
    "state": "Uttar Pradesh",
    "trainCount": "0",
    "latitude": 27.218852,
    "longitude": 80.849604,
    "address": "Manwa, Uttar Pradesh"
  },
  {
    "name": "MADGAON",
    "code": "MAO",
    "utterances": [],
    "name_hi": "मडगाओं",
    "district": "South Goa",
    "state": "Goa",
    "trainCount": "109",
    "latitude": 15.267911000000002,
    "longitude": 73.97072399999999,
    "address": "Madgaon. Ph:- 0832-2712790., Goa"
  },
  {
    "name": "MORAPPUR",
    "code": "MAP",
    "utterances": [],
    "name_hi": "मोरपपुर",
    "district": "Dharmapuri",
    "state": "Tamil Nadu",
    "trainCount": "16",
    "latitude": 12.124073000000001,
    "longitude": 78.393874,
    "address": "Dharmapuri, Tamil Nadu 635305"
  },
  {
    "name": "MANGALURU CNTL",
    "code": "MAQ",
    "utterances": [],
    "name_hi": "मंगलुरु कंटल",
    "district": "Dakshina Kannada",
    "state": "Karnataka",
    "trainCount": "46",
    "latitude": 12.862325,
    "longitude": 74.844068,
    "address": "Mangalore, Karnataka"
  },
  {
    "name": "MULANUR",
    "code": "MAR",
    "utterances": [],
    "name_hi": "मुलानुर",
    "district": "Chittoor",
    "state": "Andhra Pradesh",
    "trainCount": "4",
    "latitude": 12.661484999999999,
    "longitude": 78.40638899999999,
    "address": "Mallanuru, Andhra Pradesh 517425"
  },
  {
    "name": "MAVUR ROAD",
    "code": "MARD",
    "utterances": [],
    "name_hi": "मावूर रोड",
    "district": "Kozhikode",
    "state": "Kerala",
    "trainCount": "2",
    "latitude": 11.267846399999998,
    "longitude": 75.8677302,
    "address": "Kozhikode - Mavoor - Areacode Rd, Kuttikkattoor, Kerala 673008"
  },
  {
    "name": "MGR CHENNAI CTL",
    "code": "MAS",
    "utterances": [],
    "name_hi": "मगर चेन्नै कत्ल",
    "district": "Chennai",
    "state": "Tamil Nadu",
    "trainCount": "179",
    "latitude": 13.0847613,
    "longitude": 80.27485630000001,
    "address": "General Hospital Rd, Kannappar Thidal, Periyamet, Chennai, Tamil Nadu 600003"
  },
  {
    "name": "MAISAR KHANA",
    "code": "MASK",
    "utterances": [],
    "name_hi": "मैसर खाना",
    "district": "Bathinda",
    "state": "Punjab",
    "trainCount": "0",
    "latitude": 30.099805,
    "longitude": 75.13917000000001,
    "address": "State Highway 12A, Punjab"
  },
  {
    "name": "MAU JN",
    "code": "MAU",
    "utterances": [],
    "name_hi": "मऊ जं",
    "district": "Mau",
    "state": "Uttar Pradesh",
    "trainCount": "48",
    "latitude": 25.93948,
    "longitude": 83.564347,
    "address": "Railway Colony, Mau, Uttar Pradesh 275101"
  },
  {
    "name": "MAUR",
    "code": "MAUR",
    "utterances": [],
    "name_hi": "मौर",
    "district": "Bathinda",
    "state": "Punjab",
    "trainCount": "12",
    "latitude": 30.062745999999997,
    "longitude": 75.22772,
    "address": "Maur Mandi, Punjab"
  },
  {
    "name": "MARIAMMANKOVIL",
    "code": "MAV",
    "utterances": [],
    "name_hi": "मरिअम्मानकोविल",
    "district": "Thanjavur",
    "state": "Tamil Nadu",
    "trainCount": "0",
    "latitude": 10.773265,
    "longitude": 79.198201,
    "address": "Mariammankoil Railway Station Rd, Tamil Nadu"
  },
  {
    "name": "MARIAHU",
    "code": "MAY",
    "utterances": [],
    "name_hi": "मरिअहु",
    "district": "Jaunpur",
    "state": "Uttar Pradesh",
    "trainCount": "12",
    "latitude": 25.597006,
    "longitude": 82.598166,
    "address": "Mariahu, Uttar Pradesh"
  },
  {
    "name": "MAKAKHAD",
    "code": "MAYA",
    "utterances": [],
    "name_hi": "मकखद",
    "district": "Gandhinagar",
    "state": "Gujarat",
    "trainCount": "0",
    "latitude": 23.416982049999998,
    "longitude": 72.69055719999999,
    "address": "Makakhad, Gujarat 382735"
  },
  {
    "name": "MAYAR",
    "code": "MAYR",
    "utterances": [],
    "name_hi": "मेयर",
    "district": "Hisar",
    "state": "Haryana",
    "trainCount": "0",
    "latitude": 29.100107,
    "longitude": 75.86074699999999,
    "address": "Mayar, Haryana 125044"
  },
  {
    "name": "MANGRA",
    "code": "MAZ",
    "utterances": [],
    "name_hi": "मंगरा",
    "district": "Latehar",
    "state": "Jharkhand",
    "trainCount": "0",
    "latitude": 23.881768,
    "longitude": 84.111898,
    "address": "Mangra, Jharkhand 822111"
  },
  {
    "name": "MORADABAD",
    "code": "MB",
    "utterances": [],
    "name_hi": "मोरादाबाद",
    "district": "Moradabad",
    "state": "Uttar Pradesh",
    "trainCount": "208",
    "latitude": 28.831621000000002,
    "longitude": 78.765801,
    "address": "Railway Station Platform No 2, Line Par, Moradabad, Uttar Pradesh 244001"
  },
  {
    "name": "MAHOBA JN",
    "code": "MBA",
    "utterances": [],
    "name_hi": "महोबा जन",
    "district": "Mahoba",
    "state": "Uttar Pradesh",
    "trainCount": "20",
    "latitude": 25.306914,
    "longitude": 79.849079,
    "address": "Junction Point - Khajuraho, Uttar Pradesh"
  },
  {
    "name": "MURSHIDABAD",
    "code": "MBB",
    "utterances": [],
    "name_hi": "मुर्शिदाबाद",
    "district": "Murshidabad",
    "state": "West Bengal",
    "trainCount": "6",
    "latitude": 24.176963999999998,
    "longitude": 88.281598,
    "address": "Berhampore, West Bengal"
  },
  {
    "name": "MAHANANDA BGE",
    "code": "MBC",
    "utterances": [],
    "name_hi": "महानंदा बजे",
    "district": "Malda",
    "state": "West Bengal",
    "trainCount": "0",
    "latitude": 25.1883357022,
    "longitude": 88.0833990649,
    "address": "Maharajpur, West Bengal 732102"
  },
  {
    "name": "MUSTABADA",
    "code": "MBD",
    "utterances": [],
    "name_hi": "मुस्तबाड़ा",
    "district": "Krishna",
    "state": "Andhra Pradesh",
    "trainCount": "1",
    "latitude": 16.546882,
    "longitude": 80.73176799999999,
    "address": "Mustabada, Andhra Pradesh 521107"
  },
  {
    "name": "MIRZAPUR BNKIPR",
    "code": "MBE",
    "utterances": [],
    "name_hi": "मिर्ज़ापुर बनकीपर",
    "district": "Hooghly",
    "state": "West Bengal",
    "trainCount": "0",
    "latitude": 22.78738,
    "longitude": 88.224626,
    "address": "Mirzapur Bakipur, West Bengal 712409"
  },
  {
    "name": "MUNABAO",
    "code": "MBF",
    "utterances": [],
    "name_hi": "मुनाबाओ",
    "district": "Barmer",
    "state": "Rajasthan",
    "trainCount": "2",
    "latitude": 25.742614,
    "longitude": 70.276543,
    "address": "Barmer, Rajasthan"
  },
  {
    "name": "MAIBONG",
    "code": "MBG",
    "utterances": [],
    "name_hi": "माईबांग",
    "district": "Dima Hasao",
    "state": "Assam",
    "trainCount": "6",
    "latitude": 25.30497,
    "longitude": 93.13537099999999,
    "address": "North Cachar Hills, Assam"
  },
  {
    "name": "MARWAR BAGRA",
    "code": "MBGA",
    "utterances": [],
    "name_hi": "मरवार बगरा",
    "district": "Jalore",
    "state": "Rajasthan",
    "trainCount": "0",
    "latitude": 25.208689,
    "longitude": 72.59376099999999,
    "address": "SH 31, Rajasthan"
  },
  {
    "name": "MOBHA ROAD",
    "code": "MBH",
    "utterances": [],
    "name_hi": "मोभा रोड",
    "district": "Vadodara",
    "state": "Gujarat",
    "trainCount": "0",
    "latitude": 22.16104255,
    "longitude": 72.9712091,
    "address": "Mobha Road, Gujarat 391430"
  },
  {
    "name": "MADHUBANI",
    "code": "MBI",
    "utterances": [],
    "name_hi": "मधुबनी",
    "district": "Madhubani",
    "state": "Bihar",
    "trainCount": "24",
    "latitude": 26.348165,
    "longitude": 86.076784,
    "address": "Lakshmi Nagar Colony, Madhubani, Bihar 847211"
  },
  {
    "name": "MANUBOLU",
    "code": "MBL",
    "utterances": [],
    "name_hi": "मनुबोलू",
    "district": "Sri Potti Sriramulu Nellore",
    "state": "Andhra Pradesh",
    "trainCount": "0",
    "latitude": 14.226551,
    "longitude": 79.87707,
    "address": "Sri Potti Sriramulu Nellore District, Andhra Pradesh 524405"
  },
  {
    "name": "MAMBALAM",
    "code": "MBM",
    "utterances": [],
    "name_hi": "माम्बलम",
    "district": "Chennai",
    "state": "Tamil Nadu",
    "trainCount": "23",
    "latitude": 13.038154,
    "longitude": 80.228164,
    "address": "Rameswaram St, Postal Colony, T. Nagar, Chennai, Tamil Nadu 600017"
  },
  {
    "name": "MARWAR BHINMAL",
    "code": "MBNL",
    "utterances": [],
    "name_hi": "मरवार भीनमाल",
    "district": "Jalore",
    "state": "Rajasthan",
    "trainCount": "10",
    "latitude": 25.000632999999997,
    "longitude": 72.275398,
    "address": "Bhinmal, Rajasthan"
  },
  {
    "name": "MAHBUBNAGAR",
    "code": "MBNR",
    "utterances": [],
    "name_hi": "महबूबनगर",
    "district": "Mahabubnagar",
    "state": "Telangana",
    "trainCount": "46",
    "latitude": 16.757768,
    "longitude": 77.999429,
    "address": "Boyapalle Rural, Mahbubnagar, Telangana 509001"
  },
  {
    "name": "MOHIBULLAPUR",
    "code": "MBP",
    "utterances": [],
    "name_hi": "मोहिबुल्लापुर",
    "district": "Lucknow",
    "state": "Uttar Pradesh",
    "trainCount": "2",
    "latitude": 26.909235,
    "longitude": 80.938923,
    "address": "Aliganj, Uttar Pradesh"
  },
  {
    "name": "MUMBRA",
    "code": "MBQ",
    "utterances": [],
    "name_hi": "मुम्ब्रा",
    "district": "Thane",
    "state": "Maharashtra",
    "trainCount": "0",
    "latitude": 19.190223,
    "longitude": 73.02326,
    "address": "52RF+38V, Mumbra Station, Ilthan, Mumbra, Thane, Maharashtra 400612"
  },
  {
    "name": "MADHOSINGH",
    "code": "MBS",
    "utterances": [],
    "name_hi": "माधोसिंह",
    "district": "Bhadohi",
    "state": "Uttar Pradesh",
    "trainCount": "5",
    "latitude": 25.249931,
    "longitude": 82.552278,
    "address": "SH 5, Uttar Pradesh"
  },
  {
    "name": "MARWAR BALIA",
    "code": "MBSK",
    "utterances": [],
    "name_hi": "मरवार बलिआ",
    "district": "Nagaur",
    "state": "Rajasthan",
    "trainCount": "1",
    "latitude": 27.357827,
    "longitude": 74.545106,
    "address": "Marwar, Rajasthan"
  },
  {
    "name": "MARWAR BIRTHI",
    "code": "MBT",
    "utterances": [],
    "name_hi": "मरवार बिर्थी",
    "district": "Jodhpur",
    "state": "Rajasthan",
    "trainCount": "0",
    "latitude": 27.099589,
    "longitude": 72.290171,
    "address": "National Highway 15, Rajasthan"
  },
  {
    "name": "MIRZAPUR BCHAUD",
    "code": "MBV",
    "utterances": [],
    "name_hi": "मिर्ज़ापुर बछौद",
    "district": "Mahendragarh",
    "state": "Haryana",
    "trainCount": "0",
    "latitude": 28.077937000000002,
    "longitude": 76.198447,
    "address": "State Highway 26, Haryana"
  },
  {
    "name": "MALWARA",
    "code": "MBW",
    "utterances": [],
    "name_hi": "मलवारा",
    "district": "Jalore",
    "state": "Rajasthan",
    "trainCount": "0",
    "latitude": 24.7994691685,
    "longitude": 72.26700809939999,
    "address": "Marwara, Rajasthan"
  },
  {
    "name": "MANDI DABWALI",
    "code": "MBY",
    "utterances": [],
    "name_hi": "मंडी डबवाली",
    "district": "Sirsa",
    "state": "Haryana",
    "trainCount": "16",
    "latitude": 29.966227,
    "longitude": 74.700155,
    "address": "Mandi Dabwali, Haryana"
  },
  {
    "name": "MECHEDA",
    "code": "MCA",
    "utterances": [],
    "name_hi": "मछेड़ा",
    "district": "Purba Medinipur",
    "state": "West Bengal",
    "trainCount": "21",
    "latitude": 22.414105,
    "longitude": 87.85883,
    "address": "Mechada Railway Station Pedestrian Bridge, Raksa Chak, West Bengal 721134"
  },
  {
    "name": "MANIK CHAUREE H",
    "code": "MCF",
    "utterances": [],
    "name_hi": "मानिक चौरी ः",
    "district": "Raipur",
    "state": "Chhattisgarh",
    "trainCount": "0",
    "latitude": 21.004164000000003,
    "longitude": 81.783198,
    "address": "Manikchauri, Chhattisgarh"
  },
  {
    "name": "MANCHIRYAL",
    "code": "MCI",
    "utterances": [],
    "name_hi": "मानचिरयाल",
    "district": "Mancherial",
    "state": "Telangana",
    "trainCount": "61",
    "latitude": 18.878745000000002,
    "longitude": 79.448848,
    "address": "Mancherial, Telangana 504208"
  },
  {
    "name": "MANJATTIDAL",
    "code": "MCJ",
    "utterances": [],
    "name_hi": "मानजात्तीदळ",
    "district": "Tiruchirappalli",
    "state": "Tamil Nadu",
    "trainCount": "0",
    "latitude": 10.792057,
    "longitude": 78.731401,
    "address": "Mela Kalkandar Kottai Tiruchchirappalli 620011, Tamil Nadu"
  },
  {
    "name": "MADIMANGALAM",
    "code": "MCL",
    "utterances": [],
    "name_hi": "मदीमंगलम",
    "district": "Tiruvannamalai",
    "state": "Tamil Nadu",
    "trainCount": "0",
    "latitude": 12.598975000000001,
    "longitude": 79.1862,
    "address": "Tiruvannamalai, Tamil Nadu 606907"
  },
  {
    "name": "MACHERLA",
    "code": "MCLA",
    "utterances": [],
    "name_hi": "मचेर्ला",
    "district": "Guntur",
    "state": "Andhra Pradesh",
    "trainCount": "0",
    "latitude": 16.4695102,
    "longitude": 79.4382772,
    "address": "Macherla, Andhra Pradesh"
  },
  {
    "name": "MANCHILI",
    "code": "MCLE",
    "utterances": [],
    "name_hi": "मंचीली",
    "district": "West Godavari",
    "state": "Andhra Pradesh",
    "trainCount": "2",
    "latitude": 16.662928,
    "longitude": 81.613684,
    "address": "Coastal Andhra Region, Andhra Pradesh"
  },
  {
    "name": "MUKUNDARAYAPURM",
    "code": "MCN",
    "utterances": [],
    "name_hi": "मुकुंदरायपुरम",
    "district": "Vellore",
    "state": "Tamil Nadu",
    "trainCount": "10",
    "latitude": 12.977678,
    "longitude": 79.289067,
    "address": "Mukundarayapuram, Ranipet, Tamil Nadu 632406"
  },
  {
    "name": "MOTIHARI COURT",
    "code": "MCO",
    "utterances": [],
    "name_hi": "मोतिहारी कोर्ट",
    "district": "Purba Champaran",
    "state": "Bihar",
    "trainCount": "0",
    "latitude": 26.62564,
    "longitude": 84.90543100000001,
    "address": "JWG3+8JJ, Gandak Colony, Motihari, Bihar 845401"
  },
  {
    "name": "MARWAR CHAPRI",
    "code": "MCPE",
    "utterances": [],
    "name_hi": "मरवार चपरि",
    "district": "",
    "state": "Rajasthan",
    "trainCount": "0",
    "latitude": 26.783796494421793,
    "longitude": 73.90764225275419,
    "address": "Jaroda Charna, Rajasthan 341514"
  },
  {
    "name": "MECHERI ROAD",
    "code": "MCRD",
    "utterances": [],
    "name_hi": "मेचेरी रोड",
    "district": "Salem",
    "state": "Tamil Nadu",
    "trainCount": "1",
    "latitude": 11.804210999999999,
    "longitude": 77.921857,
    "address": "Sankari - Edappadi - Mecheri Rd, Pudur, Tamil Nadu 636453"
  },
  {
    "name": "MANCHESWAR",
    "code": "MCS",
    "utterances": [],
    "name_hi": "मंचेस्वर",
    "district": "Khordha",
    "state": "Odisha",
    "trainCount": "16",
    "latitude": 20.321861,
    "longitude": 85.84486600000001,
    "address": "Mancheswar Railway Station Bhubaneswar (MC, Odisha 751017"
  },
  {
    "name": "MULACALACHERUVU",
    "code": "MCU",
    "utterances": [],
    "name_hi": "मुलकालाचेरुवु",
    "district": "Chittoor",
    "state": "Andhra Pradesh",
    "trainCount": "7",
    "latitude": 13.802188000000001,
    "longitude": 78.26482899999999,
    "address": "Mulakalacheruvu, Andhra Pradesh"
  },
  {
    "name": "MACHARYA",
    "code": "MCV",
    "utterances": [],
    "name_hi": "मचार्य",
    "district": "Moradabad",
    "state": "Uttar Pradesh",
    "trainCount": "0",
    "latitude": 28.772575,
    "longitude": 78.80370199999999,
    "address": "Kundarkhi, Uttar Pradesh"
  },
  {
    "name": "MACHAVARAM",
    "code": "MCVM",
    "utterances": [],
    "name_hi": "मचवरम",
    "district": "Guntur",
    "state": "Andhra Pradesh",
    "trainCount": "0",
    "latitude": 16.025343,
    "longitude": 80.54154100000001,
    "address": "Machavaram, Andhra Pradesh 522315"
  },
  {
    "name": "MACHHRIAWAN",
    "code": "MCY",
    "utterances": [],
    "name_hi": "मछरिआवन",
    "district": "Patna",
    "state": "Bihar",
    "trainCount": "0",
    "latitude": 25.4624795686,
    "longitude": 85.29441999630001,
    "address": "Bankipur Machhariawan, Bihar 803201"
  },
  {
    "name": "MAHABUANG",
    "code": "MCZ",
    "utterances": [],
    "name_hi": "महाबुआंग",
    "district": "Simdega",
    "state": "Jharkhand",
    "trainCount": "0",
    "latitude": 22.7199286684,
    "longitude": 84.9352760571,
    "address": "Barbera, Jharkhand 835201"
  },
  {
    "name": "MADAR",
    "code": "MD",
    "utterances": [],
    "name_hi": "मदर",
    "district": "Ajmer",
    "state": "Rajasthan",
    "trainCount": "0",
    "latitude": 26.465014,
    "longitude": 74.68722700000001,
    "address": "Ajmer, Rajasthan"
  },
  {
    "name": "MANDHANA JN",
    "code": "MDA",
    "utterances": [],
    "name_hi": "मंधना जन",
    "district": "Kanpur Nagar",
    "state": "Uttar Pradesh",
    "trainCount": "0",
    "latitude": 26.557002,
    "longitude": 80.222507,
    "address": "NH 91, Bagdudi Bagar, Mandhana, Uttar Pradesh 209217"
  },
  {
    "name": "MANDOR",
    "code": "MDB",
    "utterances": [],
    "name_hi": "मंडोर",
    "district": "Jodhpur",
    "state": "Rajasthan",
    "trainCount": "3",
    "latitude": 26.350708,
    "longitude": 73.042126,
    "address": "Jodhpur, Rajasthan"
  },
  {
    "name": "MADHABPUR",
    "code": "MDBP",
    "utterances": [],
    "name_hi": "माधाबपुर",
    "district": "South 24 Parganas",
    "state": "West Bengal",
    "trainCount": "0",
    "latitude": 22.119207,
    "longitude": 88.347323,
    "address": "State Highway 3, West Bengal"
  },
  {
    "name": "MALAD",
    "code": "MDD",
    "utterances": [],
    "name_hi": "मलाड",
    "district": "Mumbai Suburban",
    "state": "Maharashtra",
    "trainCount": "0",
    "latitude": 19.187089,
    "longitude": 72.84917,
    "address": "Mumbai, Maharashtra"
  },
  {
    "name": "MANDI DIP",
    "code": "MDDP",
    "utterances": [],
    "name_hi": "मंडी दिप",
    "district": "Raisen",
    "state": "Madhya Pradesh",
    "trainCount": "6",
    "latitude": 23.093747,
    "longitude": 77.511077,
    "address": "Vidya Nagar, Mandideep, Bhopal, Madhya Pradesh 462046"
  },
  {
    "name": "MAKHDUMPUR GAYA",
    "code": "MDE",
    "utterances": [],
    "name_hi": "मखदुमपुर गया",
    "district": "Jehanabad",
    "state": "Bihar",
    "trainCount": "8",
    "latitude": 25.077130999999998,
    "longitude": 84.979105,
    "address": "Jehanabad, Bihar"
  },
  {
    "name": "MURADI",
    "code": "MDF",
    "utterances": [],
    "name_hi": "मुरादी",
    "district": "Purulia",
    "state": "West Bengal",
    "trainCount": "4",
    "latitude": 23.593092000000002,
    "longitude": 86.80929,
    "address": "Barakar, West Bengal"
  },
  {
    "name": "MANENDRAGARH",
    "code": "MDGR",
    "utterances": [],
    "name_hi": "मनेन्द्रगढ़",
    "district": "Manendragarh",
    "state": "Chhattisgarh",
    "trainCount": "1",
    "latitude": 23.22068623909135,
    "longitude": 82.19770708466004,
    "address": "Manendragarh, Madhya Pradesh"
  },
  {
    "name": "MANDHAR",
    "code": "MDH",
    "utterances": [],
    "name_hi": "मंधर",
    "district": "Raipur",
    "state": "Chhattisgarh",
    "trainCount": "0",
    "latitude": 21.33807,
    "longitude": 81.704606,
    "address": "Mandhar, Chhattisgarh 493111"
  },
  {
    "name": "MADHADA",
    "code": "MDHA",
    "utterances": [],
    "name_hi": "मढडा",
    "district": "Bhavnagar",
    "state": "Gujarat",
    "trainCount": "0",
    "latitude": 21.608000903100002,
    "longitude": 71.90539757810001,
    "address": "Bhavnagar, Gujarat"
  },
  {
    "name": "MUHAMMADGANJ",
    "code": "MDJ",
    "utterances": [],
    "name_hi": "मुहम्मदगंज",
    "district": "Palamu",
    "state": "Jharkhand",
    "trainCount": "10",
    "latitude": 24.42644,
    "longitude": 83.869978,
    "address": "Mohsinnagar alias Muhammadganj, Jharkhand 822120"
  },
  {
    "name": "MADHUKUNDA",
    "code": "MDKD",
    "utterances": [],
    "name_hi": "मधुकुन्दा",
    "district": "Purulia",
    "state": "West Bengal",
    "trainCount": "4",
    "latitude": 23.626630000000002,
    "longitude": 86.869091,
    "address": "Barakar, West Bengal"
  },
  {
    "name": "MADUKARAI",
    "code": "MDKI",
    "utterances": [],
    "name_hi": "मदुकारै",
    "district": "Coimbatore",
    "state": "Tamil Nadu",
    "trainCount": "0",
    "latitude": 10.900858,
    "longitude": 76.94295000000001,
    "address": "Ettimadai R.f., Madukkarai, Tamil Nadu 641105"
  },
  {
    "name": "MODUKURU",
    "code": "MDKU",
    "utterances": [],
    "name_hi": "मोदुकुरु",
    "district": "Guntur",
    "state": "Andhra Pradesh",
    "trainCount": "0",
    "latitude": 16.124988000000002,
    "longitude": 80.58380799999999,
    "address": "Guntur, Andhra Pradesh"
  },
  {
    "name": "MANDAL",
    "code": "MDL",
    "utterances": [],
    "name_hi": "मंडल",
    "district": "Bhilwara",
    "state": "Rajasthan",
    "trainCount": "4",
    "latitude": 25.439631738299997,
    "longitude": 74.59395891049999,
    "address": "Mandal, Rajasthan"
  },
  {
    "name": "MUNDLANA",
    "code": "MDLA",
    "utterances": [],
    "name_hi": "मुंडलाना",
    "district": "Sonipat",
    "state": "Haryana",
    "trainCount": "0",
    "latitude": 29.212025,
    "longitude": 76.757452,
    "address": "Panipat, Haryana"
  },
  {
    "name": "MANDAR HILL",
    "code": "MDLE",
    "utterances": [],
    "name_hi": "मंदार हिल",
    "district": "Banka",
    "state": "Bihar",
    "trainCount": "2",
    "latitude": 24.8060780645,
    "longitude": 87.02615830570001,
    "address": "Mandar, Bihar"
  },
  {
    "name": "MUDDALINGAHALLI",
    "code": "MDLL",
    "utterances": [],
    "name_hi": "मुद्दलिंगहालली",
    "district": "Bangalore Rural",
    "state": "Karnataka",
    "trainCount": "0",
    "latitude": 13.2391442032,
    "longitude": 77.3047403595,
    "address": "NH 207, Karnataka"
  },
  {
    "name": "MUNDALARAM",
    "code": "MDLM",
    "utterances": [],
    "name_hi": "मुंदलाराम",
    "district": "Ratlam",
    "state": "Madhya Pradesh",
    "trainCount": "0",
    "latitude": 23.687953,
    "longitude": 75.102087,
    "address": "Ismailpura, Madhya Pradesh 457340"
  },
  {
    "name": "MIDNAPORE",
    "code": "MDN",
    "utterances": [],
    "name_hi": "मिदनापुर",
    "district": "Paschim Medinipur",
    "state": "West Bengal",
    "trainCount": "43",
    "latitude": 22.42498,
    "longitude": 87.307379,
    "address": "Medinipur, West Bengal"
  },
  {
    "name": "MODINAGAR",
    "code": "MDNR",
    "utterances": [],
    "name_hi": "मोदीनगर",
    "district": "Ghaziabad",
    "state": "Uttar Pradesh",
    "trainCount": "18",
    "latitude": 28.827907,
    "longitude": 77.571716,
    "address": "Ghaziabad, Uttar Pradesh"
  },
  {
    "name": "MADHUPUR JN",
    "code": "MDP",
    "utterances": [],
    "name_hi": "मधुपुर जन",
    "district": "Deoghar",
    "state": "Jharkhand",
    "trainCount": "110",
    "latitude": 24.270633,
    "longitude": 86.642183,
    "address": "Madhupur, Jharkhand 815353"
  },
  {
    "name": "MADHOPUR PUNJAB",
    "code": "MDPB",
    "utterances": [],
    "name_hi": "माधोपुर पंजाब",
    "district": "Pathankot",
    "state": "Punjab",
    "trainCount": "3",
    "latitude": 32.359168000000004,
    "longitude": 75.594728,
    "address": "Madhopur, Punjab"
  },
  {
    "name": "MANDAPADU",
    "code": "MDPD",
    "utterances": [],
    "name_hi": "मण्डपदु",
    "district": "Guntur",
    "state": "Andhra Pradesh",
    "trainCount": "0",
    "latitude": 16.388651999999997,
    "longitude": 80.320507,
    "address": "Mandapadu, Andhra Pradesh 522401"
  },
  {
    "name": "MODPUR",
    "code": "MDPR",
    "utterances": [],
    "name_hi": "मोदपुर",
    "district": "Jamnagar",
    "state": "Gujarat",
    "trainCount": "0",
    "latitude": 22.2625878623,
    "longitude": 69.81170376339999,
    "address": "Khambhalia-Lalpur, Gujarat"
  },
  {
    "name": "MADHIRA",
    "code": "MDR",
    "utterances": [],
    "name_hi": "मदिरा",
    "district": "Khammam",
    "state": "Telangana",
    "trainCount": "31",
    "latitude": 16.921826,
    "longitude": 80.366849,
    "address": "K.Ponnavaram, Andhra Pradesh"
  },
  {
    "name": "MEDRA",
    "code": "MDRA",
    "utterances": [],
    "name_hi": "मद्र",
    "district": "Ahmadabad",
    "state": "Gujarat",
    "trainCount": "0",
    "latitude": 23.13609,
    "longitude": 72.712778,
    "address": "National Highway 8, Gujarat"
  },
  {
    "name": "MANDASOR",
    "code": "MDS",
    "utterances": [],
    "name_hi": "मंदसौर",
    "district": "Mandsaur",
    "state": "Madhya Pradesh",
    "trainCount": "33",
    "latitude": 24.075937000000003,
    "longitude": 75.07634300000001,
    "address": "Mandsaur, Madhya Pradesh"
  },
  {
    "name": "MADHU SUDANPUR",
    "code": "MDSE",
    "utterances": [],
    "name_hi": "मधु सूदनपुर",
    "district": "Hooghly",
    "state": "West Bengal",
    "trainCount": "0",
    "latitude": 22.845108,
    "longitude": 88.193499,
    "address": "Madhusudanpur, West Bengal 712407"
  },
  {
    "name": "MADARIHAT",
    "code": "MDT",
    "utterances": [],
    "name_hi": "मदारीहाट",
    "district": "Alipurduar",
    "state": "West Bengal",
    "trainCount": "2",
    "latitude": 26.694551388,
    "longitude": 89.274559021,
    "address": "National Highway 31C, West Bengal"
  },
  {
    "name": "MADURAI JN",
    "code": "MDU",
    "utterances": [],
    "name_hi": "मदुरै जं",
    "district": "Madurai",
    "state": "Tamil Nadu",
    "trainCount": "93",
    "latitude": 9.919907,
    "longitude": 78.11031399999999,
    "address": "Railway Junction Road, Southern Railway Colony, Tamil Nadu 625016"
  },
  {
    "name": "MANDAVAD",
    "code": "MDVD",
    "utterances": [],
    "name_hi": "मण्डावाद",
    "district": "",
    "state": "",
    "trainCount": "",
    "latitude": "",
    "longitude": "",
    "address": ""
  },
  {
    "name": "MANDAVALLI",
    "code": "MDVL",
    "utterances": [],
    "name_hi": "मंडावली",
    "district": "Krishna",
    "state": "Andhra Pradesh",
    "trainCount": "2",
    "latitude": 16.518809308199998,
    "longitude": 81.1607440393,
    "address": "Mandavalli, Andhra Pradesh"
  },
  {
    "name": "MADHAVNAGAR",
    "code": "MDVR",
    "utterances": [],
    "name_hi": "माधवनगर",
    "district": "Sangli",
    "state": "Maharashtra",
    "trainCount": "0",
    "latitude": 16.886605,
    "longitude": 74.575493,
    "address": "Sangli, Maharashtra"
  },
  {
    "name": "MARWAR MUNDWA",
    "code": "MDW",
    "utterances": [],
    "name_hi": "मारवाड़ मूंडवा",
    "district": "Nagaur",
    "state": "Rajasthan",
    "trainCount": "6",
    "latitude": 27.063606,
    "longitude": 73.815965,
    "address": "Mundwa, Rajasthan 341026"
  },
  {
    "name": "MASAIPET",
    "code": "ME",
    "utterances": [],
    "name_hi": "मसिपेट",
    "district": "Medak",
    "state": "Telangana",
    "trainCount": "0",
    "latitude": 17.8805365542,
    "longitude": 78.4669570667,
    "address": "Medak, Andhra Pradesh"
  },
  {
    "name": "MERTA CITY",
    "code": "MEC",
    "utterances": [],
    "name_hi": "मेरता सिटी",
    "district": "Nagaur",
    "state": "Rajasthan",
    "trainCount": "0",
    "latitude": 26.65062275,
    "longitude": 74.02999875,
    "address": "Baldev Nagar colony, Merta, Rajasthan 341510"
  },
  {
    "name": "MEDCHAL",
    "code": "MED",
    "utterances": [],
    "name_hi": "मेडल",
    "district": "Medchal Malkajgiri",
    "state": "Telangana",
    "trainCount": "12",
    "latitude": 17.639335,
    "longitude": 78.474557,
    "address": "Rangareddy, Andhra Pradesh"
  },
  {
    "name": "METHAI",
    "code": "MEE",
    "utterances": [],
    "name_hi": "मिठाई",
    "district": "",
    "state": "Bihar",
    "trainCount": "0",
    "latitude": 25.906809503454422,
    "longitude": 86.72524708157079,
    "address": "Mathahi Rd, Mathahi, Bihar 852121"
  },
  {
    "name": "MELALATHUR",
    "code": "MEH",
    "utterances": [],
    "name_hi": "मेललातुर",
    "district": "Vellore",
    "state": "Tamil Nadu",
    "trainCount": "2",
    "latitude": 12.917803000000001,
    "longitude": 78.875384,
    "address": "Vellore, Tamil Nadu 635806"
  },
  {
    "name": "VANCHIMANIYACHI",
    "code": "MEJ",
    "utterances": [],
    "name_hi": "वञ्चिमनियाची",
    "district": "Thoothukkudi",
    "state": "Tamil Nadu",
    "trainCount": "35",
    "latitude": 8.882102999999999,
    "longitude": 77.890651,
    "address": "Thoothukudi, Tamil Nadu"
  },
  {
    "name": "MELAKKONNAKKULM",
    "code": "MEKM",
    "utterances": [],
    "name_hi": "मेलक्कोनैक्कुलम",
    "district": "Sivaganga",
    "state": "Tamil Nadu",
    "trainCount": "0",
    "latitude": 9.724592999999999,
    "longitude": 78.46655700000001,
    "address": "National Highway 226, Tamil Nadu"
  },
  {
    "name": "BMBY MARINE LNS",
    "code": "MEL",
    "utterances": [],
    "name_hi": "बम्बी मरीन लंस",
    "district": "",
    "state": "Maharashtra",
    "trainCount": "0",
    "latitude": 18.945801853892718,
    "longitude": 72.82351433911734,
    "address": "WRWF+79V, Marine Lines, Mumbai, Maharashtra 400002"
  },
  {
    "name": "MELUSAR",
    "code": "MELH",
    "utterances": [],
    "name_hi": "मेलूसर",
    "district": "Churu",
    "state": "Rajasthan",
    "trainCount": "0",
    "latitude": 28.50572505,
    "longitude": 74.73215,
    "address": "Melusar Bikan, Rajasthan 331402"
  },
  {
    "name": "MAU AIMMA",
    "code": "MEM",
    "utterances": [],
    "name_hi": "मौ अइम्मा",
    "district": "Prayagraj",
    "state": "Uttar Pradesh",
    "trainCount": "4",
    "latitude": 25.698324,
    "longitude": 81.91377,
    "address": "Allahabad, Uttar Pradesh"
  },
  {
    "name": "MAHIDPUR ROAD",
    "code": "MEP",
    "utterances": [],
    "name_hi": "महिदपुर रोड",
    "district": "Nagda",
    "state": "Madhya Pradesh",
    "trainCount": "12",
    "latitude": 23.567509,
    "longitude": 75.500338,
    "address": "Mahidpur Rd, New Shivaji Nagar, Railway colony, Mehidpur Road, Madhya Pradesh 456440"
  },
  {
    "name": "MALETHU KANAK",
    "code": "MEQ",
    "utterances": [],
    "name_hi": "मलेथु कनक",
    "district": "Ayodhya",
    "state": "Uttar Pradesh",
    "trainCount": "2",
    "latitude": 26.60377,
    "longitude": 82.124891,
    "address": "Bikapur, Uttar Pradesh"
  },
  {
    "name": "METPANJRA",
    "code": "MER",
    "utterances": [],
    "name_hi": "मेटपांजरा",
    "district": "Nagpur",
    "state": "Maharashtra",
    "trainCount": "0",
    "latitude": 21.26917,
    "longitude": 78.65915899999999,
    "address": "Dhawalapur, Maharashtra 441302"
  },
  {
    "name": "MADURAI EAST",
    "code": "MES",
    "utterances": [],
    "name_hi": "मदुरै ईस्ट",
    "district": "Madurai",
    "state": "Tamil Nadu",
    "trainCount": "0",
    "latitude": 9.908505,
    "longitude": 78.134188,
    "address": "Madurai, Tamil Nadu"
  },
  {
    "name": "MALERKOTLA",
    "code": "MET",
    "utterances": [],
    "name_hi": "मलेरकोटला",
    "district": "Sangrur",
    "state": "Punjab",
    "trainCount": "17",
    "latitude": 30.529403,
    "longitude": 75.87169200000001,
    "address": "Maler Kotla, Punjab"
  },
  {
    "name": "METHI TIKUR",
    "code": "METR",
    "utterances": [],
    "name_hi": "मेथी टिकुर",
    "district": "Unnao",
    "state": "Uttar Pradesh",
    "trainCount": "0",
    "latitude": 26.698845,
    "longitude": 80.418467,
    "address": "Methi Tikur, Uttar Pradesh"
  },
  {
    "name": "MENDU",
    "code": "MEU",
    "utterances": [],
    "name_hi": "मेंदु",
    "district": "Hathras",
    "state": "Uttar Pradesh",
    "trainCount": "2",
    "latitude": 27.614247,
    "longitude": 78.09995699999999,
    "address": "Mendu, Uttar Pradesh 204102"
  },
  {
    "name": "MARHAURA",
    "code": "MEW",
    "utterances": [],
    "name_hi": "मढ़ौरा",
    "district": "Saran",
    "state": "Bihar",
    "trainCount": "2",
    "latitude": 25.969081,
    "longitude": 84.850984,
    "address": "National Highway 28B, Bihar"
  },
  {
    "name": "MUKERIAN",
    "code": "MEX",
    "utterances": [],
    "name_hi": "मुकेरियन",
    "district": "Hoshiarpur",
    "state": "Punjab",
    "trainCount": "25",
    "latitude": 31.941873,
    "longitude": 75.61183799999999,
    "address": "Mukerian, Punjab"
  },
  {
    "name": "MUKURIA",
    "code": "MFA",
    "utterances": [],
    "name_hi": "मुकुरिअ",
    "district": "Katihar",
    "state": "Bihar",
    "trainCount": "0",
    "latitude": 25.6292447936,
    "longitude": 87.88715343380001,
    "address": "Mukuria, Bihar 855113"
  },
  {
    "name": "MUSTAFABAD",
    "code": "MFB",
    "utterances": [],
    "name_hi": "मुस्तफाबाद",
    "district": "Yamunanagar",
    "state": "Haryana",
    "trainCount": "2",
    "latitude": 30.181009,
    "longitude": 77.123303,
    "address": "Uchachandana, Haryana 133103"
  },
  {
    "name": "MONABARI",
    "code": "MFC",
    "utterances": [],
    "name_hi": "मोनबारी",
    "district": "Biswanath",
    "state": "Assam",
    "trainCount": "2",
    "latitude": 26.78139845,
    "longitude": 93.23796275000001,
    "address": "Monabari Basti, Assam 784176"
  },
  {
    "name": "MAHRAULI",
    "code": "MFH",
    "utterances": [],
    "name_hi": "महरौली",
    "district": "Ghaziabad",
    "state": "Uttar Pradesh",
    "trainCount": "0",
    "latitude": 28.663865,
    "longitude": 77.468815,
    "address": "Sector-2, Mahindra Enclave, Ansals Chiranjiv Vihar, Ghaziabad, Uttar Pradesh 201002"
  },
  {
    "name": "MUFTIGANJ",
    "code": "MFJ",
    "utterances": [],
    "name_hi": "मुफ्तीगंज",
    "district": "Jaunpur",
    "state": "Uttar Pradesh",
    "trainCount": "2",
    "latitude": 25.700913,
    "longitude": 82.827774,
    "address": "Jaunpur, Uttar Pradesh"
  },
  {
    "name": "MUSAFIR KHANA",
    "code": "MFKA",
    "utterances": [],
    "name_hi": "मुसाफिर खाना",
    "district": "Amethi",
    "state": "Uttar Pradesh",
    "trainCount": "24",
    "latitude": 26.379585,
    "longitude": 81.79981699999999,
    "address": "Station Rd, Musafirkhana, Uttar Pradesh 227813"
  },
  {
    "name": "MA KALIKAN DHAM",
    "code": "MKDM",
    "utterances": [
      "MISRAULI"
    ],
    "name_hi": "मा कालिकन धाम",
    "district": "Amethi",
    "state": "Uttar Pradesh",
    "trainCount": "3",
    "latitude": 26.114370421700002,
    "longitude": 81.84839619259999,
    "address": "Misrauli, Uttar Pradesh 227413"
  },
  {
    "name": "MAHALAM",
    "code": "MFM",
    "utterances": [],
    "name_hi": "महलम",
    "district": "Ferozepur",
    "state": "Punjab",
    "trainCount": "0",
    "latitude": 31.018428,
    "longitude": 74.706748,
    "address": "State Highway 20, Punjab"
  },
  {
    "name": "MUZAFFARPUR JN",
    "code": "MFP",
    "utterances": [],
    "name_hi": "मुजफ्फरपुर जं",
    "district": "Muzaffarpur",
    "state": "Bihar",
    "trainCount": "126",
    "latitude": 26.122311,
    "longitude": 85.378006,
    "address": "Motijheel, RF COMPLEX PURANI DHARMSHALA ROAD, near Railway Station, Muzaffarpur, Bihar 842001"
  },
  {
    "name": "MAHROI",
    "code": "MFQ",
    "utterances": [],
    "name_hi": "महरोई",
    "district": "Umaria",
    "state": "Madhya Pradesh",
    "trainCount": "2",
    "latitude": 23.951414,
    "longitude": 80.919501,
    "address": "State Highway 10, Madhya Pradesh"
  },
  {
    "name": "MANDLA FORT",
    "code": "MFR",
    "utterances": [],
    "name_hi": "मंडला फोर्ट",
    "district": "Mandla",
    "state": "Madhya Pradesh",
    "trainCount": "0",
    "latitude": 22.586017,
    "longitude": 80.355908,
    "address": "Mandla Fort, Madhya Pradesh"
  },
  {
    "name": "MALAHAR",
    "code": "MFZ",
    "utterances": [],
    "name_hi": "मल्हार",
    "district": "Malda",
    "state": "West Bengal",
    "trainCount": "0",
    "latitude": 25.303708999999998,
    "longitude": 87.95782,
    "address": "8X35+C5M, Malahar, West Bengal 733127"
  },
  {
    "name": "MODELGRAM",
    "code": "MG",
    "utterances": [],
    "name_hi": "मॉडलग्राम",
    "district": "Ludhiana",
    "state": "Punjab",
    "trainCount": "2",
    "latitude": 30.891527,
    "longitude": 75.83618299999999,
    "address": "Ludhiana, Punjab"
  },
  {
    "name": "MORGRAM",
    "code": "MGAE",
    "utterances": [],
    "name_hi": "मोर्ग्राम",
    "district": "Murshidabad",
    "state": "West Bengal",
    "trainCount": "6",
    "latitude": 24.304919,
    "longitude": 88.018413,
    "address": "Murshidabad Distt., West Bengal"
  },
  {
    "name": "MUDIGUBBA",
    "code": "MGB",
    "utterances": [],
    "name_hi": "मुदिगुब्बा",
    "district": "Anantapur",
    "state": "Andhra Pradesh",
    "trainCount": "5",
    "latitude": 14.349934000000001,
    "longitude": 77.994996,
    "address": "Mudigubba, Andhra Pradesh"
  },
  {
    "name": "MUGAT",
    "code": "MGC",
    "utterances": [],
    "name_hi": "मुगट",
    "district": "Nanded",
    "state": "Maharashtra",
    "trainCount": "0",
    "latitude": 19.17485,
    "longitude": 77.427262,
    "address": "Nanded, Maharashtra"
  },
  {
    "name": "MUGAD",
    "code": "MGD",
    "utterances": [],
    "name_hi": "मुगड",
    "district": "Dharwad",
    "state": "Karnataka",
    "trainCount": "0",
    "latitude": 15.46241,
    "longitude": 74.915401,
    "address": "State Highway 34, Karnataka"
  },
  {
    "name": "MIGRENDISA",
    "code": "MGE",
    "utterances": [],
    "name_hi": "मीग्रेंडिसा",
    "district": "Dima Hasao",
    "state": "Assam",
    "trainCount": "0",
    "latitude": 25.171242,
    "longitude": 93.06155700000001,
    "address": "Migrendisa, Assam"
  },
  {
    "name": "MANDAGERE",
    "code": "MGF",
    "utterances": [],
    "name_hi": "मांडगेरे",
    "district": "Mandya",
    "state": "Karnataka",
    "trainCount": "4",
    "latitude": 12.730158,
    "longitude": 76.378905,
    "address": "Mandya District, Karnataka"
  },
  {
    "name": "MANGLIYA GAON",
    "code": "MGG",
    "utterances": [],
    "name_hi": "मंगलिया गाओं",
    "district": "Indore",
    "state": "Madhya Pradesh",
    "trainCount": "2",
    "latitude": 22.815074,
    "longitude": 75.91805099999999,
    "address": "Mangilya, Madhya Pradesh"
  },
  {
    "name": "MEGHPUR",
    "code": "MGHP",
    "utterances": [],
    "name_hi": "मेघपुर",
    "district": "Morbi",
    "state": "Gujarat",
    "trainCount": "0",
    "latitude": 22.682915249999997,
    "longitude": 70.49664865000001,
    "address": "Meghpur, Gujarat 361220"
  },
  {
    "name": "MANIGACHI",
    "code": "MGI",
    "utterances": [],
    "name_hi": "मनीगाछी",
    "district": "Darbhanga",
    "state": "Bihar",
    "trainCount": "0",
    "latitude": 26.213719,
    "longitude": 86.146605,
    "address": "Darbhanga, Bihar"
  },
  {
    "name": "MULAGUNNATHUKVU",
    "code": "MGK",
    "utterances": [],
    "name_hi": "मुलगुणनाथूकवु",
    "district": "Thrissur",
    "state": "Kerala",
    "trainCount": "0",
    "latitude": 10.596938999999999,
    "longitude": 76.207809,
    "address": "Pottore, Killannur, Kerala 680581"
  },
  {
    "name": "MANGELA",
    "code": "MGL",
    "utterances": [],
    "name_hi": "मंगला",
    "district": "Bagalkot",
    "state": "Karnataka",
    "trainCount": "2",
    "latitude": 16.223191,
    "longitude": 75.74938300000001,
    "address": "Mugalolli, Karnataka"
  },
  {
    "name": "MANIGRAM",
    "code": "MGLE",
    "utterances": [],
    "name_hi": "मनीग्राम",
    "district": "Murshidabad",
    "state": "West Bengal",
    "trainCount": "2",
    "latitude": 24.3428549076,
    "longitude": 88.107881626,
    "address": "Lalgola, West Bengal"
  },
  {
    "name": "MANGOLPURI",
    "code": "MGLP",
    "utterances": [],
    "name_hi": "मंगोलपुरी",
    "district": "North West",
    "state": "Delhi NCT",
    "trainCount": "1",
    "latitude": 28.6832457826,
    "longitude": 77.0905744531,
    "address": "Outter Ring Rd, Delhi NCT"
  },
  {
    "name": "MURAGACHA",
    "code": "MGM",
    "utterances": [],
    "name_hi": "मुरागाचा",
    "district": "Nadia",
    "state": "West Bengal",
    "trainCount": "1",
    "latitude": 23.529636,
    "longitude": 88.421243,
    "address": "Nadia, West Bengal"
  },
  {
    "name": "MCCLUSKIEGANJ",
    "code": "MGME",
    "utterances": [],
    "name_hi": "मकक्लुस्कीगंज",
    "district": "Ranchi",
    "state": "Jharkhand",
    "trainCount": "6",
    "latitude": 23.651781,
    "longitude": 84.940855,
    "address": "Mccluskieganj, Jharkhand 829208"
  },
  {
    "name": "MEGHNAGAR",
    "code": "MGN",
    "utterances": [],
    "name_hi": "मेघनगर",
    "district": "Jhabua",
    "state": "Madhya Pradesh",
    "trainCount": "41",
    "latitude": 22.907459,
    "longitude": 74.539834,
    "address": "MEGHANAGAR, JHABUA ROAD, Mrghanagr, Madhya Pradesh 457779"
  },
  {
    "name": "MAGNAD",
    "code": "MGND",
    "utterances": [],
    "name_hi": "मगनद",
    "district": "",
    "state": "",
    "trainCount": "",
    "latitude": "",
    "longitude": "",
    "address": ""
  },
  {
    "name": "MAHISGAON",
    "code": "MGO",
    "utterances": [],
    "name_hi": "महीसगाओं",
    "district": "Solapur",
    "state": "Maharashtra",
    "trainCount": "0",
    "latitude": 18.111324,
    "longitude": 75.501817,
    "address": "State Highway 77, Maharashtra"
  },
  {
    "name": "MUNDA GOPAL ASH",
    "code": "MGPA",
    "utterances": [],
    "name_hi": "मुंडा गोपाल ऐश",
    "district": "Sitapur",
    "state": "Uttar Pradesh",
    "trainCount": "0",
    "latitude": 27.255493,
    "longitude": 81.139283,
    "address": "Shaili Kiratpur, Uttar Pradesh"
  },
  {
    "name": "MANGAPURAM",
    "code": "MGPM",
    "utterances": [],
    "name_hi": "मंगपुराम",
    "district": "Khammam",
    "state": "Telangana",
    "trainCount": "0",
    "latitude": 13.609912249999999,
    "longitude": 79.44774195,
    "address": "Rajaji St, Tiruchanur, Konkachennaiahgunta, Andhra Pradesh 517503"
  },
  {
    "name": "MONGHYR",
    "code": "MGR",
    "utterances": [],
    "name_hi": "मॉंगीर",
    "district": "Munger",
    "state": "Bihar",
    "trainCount": "7",
    "latitude": 25.37100925,
    "longitude": 86.4734434,
    "address": "बारी बाजार मार्ग, Shah Family, Dilawer Pur, Munger, Bihar 811201"
  },
  {
    "name": "MANGROLLA",
    "code": "MGRL",
    "utterances": [],
    "name_hi": "मंगरोला",
    "district": "Surat",
    "state": "Gujarat",
    "trainCount": "0",
    "latitude": 21.156258,
    "longitude": 73.182172,
    "address": "Palsod, Gujarat 394355"
  },
  {
    "name": "MEGH RAJ PURA",
    "code": "MGRP",
    "utterances": [],
    "name_hi": "मेघ राज पूरा",
    "district": "Kangra",
    "state": "Himachal Pradesh",
    "trainCount": "0",
    "latitude": 32.079397,
    "longitude": 76.07141899999999,
    "address": "State Highway 22, Himachal Pradesh"
  },
  {
    "name": "DD UPADHYAYA JN",
    "code": "DDU",
    "utterances": [],
    "name_hi": "दद उपाध्याय जन",
    "district": "",
    "state": "Uttar Pradesh",
    "trainCount": "278",
    "latitude": 25.280669815278,
    "longitude": 83.12069395272243,
    "address": "232101 Pandit Dindayal Upadhyaya Marg Pandit Dindayal Upadhyay Nagar Uttaresh, 276001"
  },
  {
    "name": "MAGRA HAT",
    "code": "MGT",
    "utterances": [],
    "name_hi": "मगर हैट",
    "district": "South 24 Parganas",
    "state": "West Bengal",
    "trainCount": "0",
    "latitude": 22.242111,
    "longitude": 88.37271299999999,
    "address": "Magra Hat, West Bengal"
  },
  {
    "name": "MOLAGAVALLI",
    "code": "MGV",
    "utterances": [],
    "name_hi": "मोलागवल्ली",
    "district": "Kurnool",
    "state": "Andhra Pradesh",
    "trainCount": "0",
    "latitude": 15.357784,
    "longitude": 77.371821,
    "address": "MDR86, Andhra Pradesh 518396"
  },
  {
    "name": "MALEGAON P H",
    "code": "MGVK",
    "utterances": [],
    "name_hi": "मालेगाव प ह",
    "district": "Nagpur",
    "state": "Maharashtra",
    "trainCount": "0",
    "latitude": 21.37586,
    "longitude": 78.956134,
    "address": "National Highway 69, Maharashtra"
  },
  {
    "name": "MAGARWARA",
    "code": "MGW",
    "utterances": [],
    "name_hi": "मगरवारा",
    "district": "Unnao",
    "state": "Uttar Pradesh",
    "trainCount": "0",
    "latitude": 26.523705,
    "longitude": 80.428892,
    "address": "Magarwara Industrial Area, Galgalha, Uttar Pradesh"
  },
  {
    "name": "MAHNGARWL DOABA",
    "code": "MGWD",
    "utterances": [],
    "name_hi": "महंगारवल दोआबा",
    "district": "Hoshiarpur",
    "state": "Punjab",
    "trainCount": "0",
    "latitude": 31.325405,
    "longitude": 76.088969,
    "address": "Mahngarwal Doaba, Punjab"
  },
  {
    "name": "MAHARAJGANJ",
    "code": "MGZ",
    "utterances": [],
    "name_hi": "महराजगंज",
    "district": "Siwan",
    "state": "Bihar",
    "trainCount": "0",
    "latitude": 26.10831977534847,
    "longitude": 84.50735923633665,
    "address": "गोल चक्कर के पास, Bismil Nagar, Maharajganj, Uttar Pradesh 273303"
  },
  {
    "name": "MOHADI PRGN LNG",
    "code": "MHAD",
    "utterances": [],
    "name_hi": "मोहादि परगन लंग",
    "district": "Dhule",
    "state": "Maharashtra",
    "trainCount": "1",
    "latitude": 20.863002,
    "longitude": 74.77978399999999,
    "address": "Dhule, Maharashtra"
  },
  {
    "name": "MAHADEVA BUZRUG",
    "code": "MHBG",
    "utterances": [],
    "name_hi": "महादेव बुजरुग",
    "district": "Siddharthnagar",
    "state": "Uttar Pradesh",
    "trainCount": "0",
    "latitude": 27.451000999999998,
    "longitude": 82.87452,
    "address": "Mahadeva Buzrug, Uttar Pradesh"
  },
  {
    "name": "MASRAKH",
    "code": "MHC",
    "utterances": [],
    "name_hi": "मसरख",
    "district": "Saran",
    "state": "Bihar",
    "trainCount": "2",
    "latitude": 26.1022287466,
    "longitude": 84.8085433154,
    "address": "Mashrakh, Bihar"
  },
  {
    "name": "MHMDVD KHEDA RD",
    "code": "MHD",
    "utterances": [],
    "name_hi": "महमदवद खेडा रद",
    "district": "Kheda",
    "state": "Gujarat",
    "trainCount": "26",
    "latitude": 22.819556000000002,
    "longitude": 72.752481,
    "address": "Mahemdavad, Gujarat 387130"
  },
  {
    "name": "MAHADEVPARA",
    "code": "MHDP",
    "utterances": [],
    "name_hi": "महादेवपारा",
    "district": "Sabarkantha",
    "state": "Gujarat",
    "trainCount": "0",
    "latitude": 23.677025,
    "longitude": 72.949202,
    "address": "State Highway 9, Gujarat"
  },
  {
    "name": "MOHARI",
    "code": "MHF",
    "utterances": [],
    "name_hi": "मोहरी",
    "district": "Dholpur",
    "state": "Rajasthan",
    "trainCount": "0",
    "latitude": 26.70055271,
    "longitude": 77.55378492,
    "address": "State Highway 43, Rajasthan"
  },
  {
    "name": "MAGHAR",
    "code": "MHH",
    "utterances": [],
    "name_hi": "मगर",
    "district": "Sant Kabir Nagar",
    "state": "Uttar Pradesh",
    "trainCount": "10",
    "latitude": 26.750013,
    "longitude": 83.133741,
    "address": "Maghar, Uttar Pradesh 272173"
  },
  {
    "name": "MAHESRA",
    "code": "MHHR",
    "utterances": [],
    "name_hi": "महेसरा",
    "district": "Amroha",
    "state": "Uttar Pradesh",
    "trainCount": "0",
    "latitude": 28.856392,
    "longitude": 78.330321,
    "address": "Amroha, Uttar Pradesh"
  },
  {
    "name": "MANIHARI",
    "code": "MHI",
    "utterances": [],
    "name_hi": "मनिहारी",
    "district": "Katihar",
    "state": "Bihar",
    "trainCount": "4",
    "latitude": 25.343215469,
    "longitude": 87.6197250085,
    "address": "Manihari Railway Station, Bihar"
  },
  {
    "name": "MAHAJAN",
    "code": "MHJ",
    "utterances": [],
    "name_hi": "महाजन",
    "district": "Bikaner",
    "state": "Rajasthan",
    "trainCount": "12",
    "latitude": 28.793007,
    "longitude": 73.85366599999999,
    "address": "Mahajan, Rajasthan"
  },
  {
    "name": "MOHKHUTI",
    "code": "MHKT",
    "utterances": [],
    "name_hi": "मोहखूटी",
    "district": "",
    "state": "Assam",
    "trainCount": "0",
    "latitude": 27.10607054224338,
    "longitude": 94.80645145460878,
    "address": "Mohkhuti, Bhaluka Guri, Assam 785669"
  },
  {
    "name": "MAHWAL",
    "code": "MHL",
    "utterances": [],
    "name_hi": "महवल",
    "district": "Muzaffarpur",
    "state": "Bihar",
    "trainCount": "0",
    "latitude": 26.301858406599997,
    "longitude": 85.12631435489999,
    "address": "Muzaffarpur, Bihar"
  },
  {
    "name": "MAHIMBA",
    "code": "MHMB",
    "utterances": [],
    "name_hi": "महिमबा",
    "district": "Nanded",
    "state": "Maharashtra",
    "trainCount": "0",
    "latitude": 19.419884999999997,
    "longitude": 78.076322,
    "address": "Nanded, Maharashtra"
  },
  {
    "name": "MAHANADI",
    "code": "MHN",
    "utterances": [],
    "name_hi": "महानदी",
    "district": "Darjeeling",
    "state": "West Bengal",
    "trainCount": "1",
    "latitude": 26.882301000000002,
    "longitude": 88.318628,
    "address": "Pankhabari Rd, West Bengal"
  },
  {
    "name": "MAHPUR",
    "code": "MHO",
    "utterances": [],
    "name_hi": "माहपुर",
    "district": "Ghazipur",
    "state": "Uttar Pradesh",
    "trainCount": "4",
    "latitude": 25.605166,
    "longitude": 83.246984,
    "address": "Mahpur Bhimapar Marg, Uttar Pradesh"
  },
  {
    "name": "MHOW",
    "code": "MHOW",
    "utterances": [],
    "name_hi": "महौ",
    "district": "Indore",
    "state": "Madhya Pradesh",
    "trainCount": "2",
    "latitude": 22.55518,
    "longitude": 75.771097,
    "address": "Mhow, Madhya Pradesh"
  },
  {
    "name": "MUHAMMADPUR",
    "code": "MHP",
    "utterances": [],
    "name_hi": "मुहम्मदपुर",
    "district": "Darbhanga",
    "state": "Bihar",
    "trainCount": "0",
    "latitude": 26.236878,
    "longitude": 85.852798,
    "address": "Station Rd, Mahamadpur, Bihar 847306"
  },
  {
    "name": "MAHIYARPUR",
    "code": "MHPR",
    "utterances": [],
    "name_hi": "महियारपुर",
    "district": "Katihar",
    "state": "Bihar",
    "trainCount": "4",
    "latitude": 25.411453041399998,
    "longitude": 87.613385199,
    "address": "Manohar Pur, Bihar 854101"
  },
  {
    "name": "MAHUDA",
    "code": "MHQ",
    "utterances": [],
    "name_hi": "महुदा",
    "district": "Dhanbad",
    "state": "Jharkhand",
    "trainCount": "7",
    "latitude": 23.747481,
    "longitude": 86.27078300000001,
    "address": "National Highway 32, Jharkhand"
  },
  {
    "name": "MAHENDRAGARH",
    "code": "MHRG",
    "utterances": [],
    "name_hi": "महेंद्रगढ़",
    "district": "Mahendragarh",
    "state": "Haryana",
    "trainCount": "16",
    "latitude": 28.281433000000003,
    "longitude": 76.14863000000001,
    "address": "Mahendragarh, Haryana"
  },
  {
    "name": "MAHRAIL",
    "code": "MHRL",
    "utterances": [],
    "name_hi": "महरैल",
    "district": "Madhubani",
    "state": "Bihar",
    "trainCount": "0",
    "latitude": 26.294081000000002,
    "longitude": 86.284783,
    "address": "Mahrail, Bihar"
  },
  {
    "name": "MAHESPUR",
    "code": "MHSP",
    "utterances": [],
    "name_hi": "महेशपुर",
    "district": "",
    "state": "West Bengal",
    "trainCount": "0",
    "latitude": 23.78811819699279,
    "longitude": 87.83673941036365,
    "address": "SH6, Lohadda, West Bengal 731303"
  },
  {
    "name": "MANJHI",
    "code": "MHT",
    "utterances": [],
    "name_hi": "मांझी",
    "district": "",
    "state": "Bihar",
    "trainCount": "2",
    "latitude": 25.8290712369965,
    "longitude": 84.58512432574595,
    "address": "Bahoran Singh Ke Tola, Bihar 841305"
  },
  {
    "name": "MALIHATI TBR RD",
    "code": "MHTR",
    "utterances": [],
    "name_hi": "मालिहाती तबर रद",
    "district": "Murshidabad",
    "state": "West Bengal",
    "trainCount": "0",
    "latitude": 23.79372,
    "longitude": 88.126194,
    "address": "Rd, West Bengal"
  },
  {
    "name": "MANHERU",
    "code": "MHU",
    "utterances": [],
    "name_hi": "मानहेरू",
    "district": "Bhiwani",
    "state": "Haryana",
    "trainCount": "0",
    "latitude": 28.701227,
    "longitude": 76.203117,
    "address": "Bhiwani, Haryana"
  },
  {
    "name": "MAHUDHA",
    "code": "MHUA",
    "utterances": [],
    "name_hi": "महुधा",
    "district": "Kheda",
    "state": "Gujarat",
    "trainCount": "0",
    "latitude": 22.817129,
    "longitude": 72.946947,
    "address": "Madhuda, Gujarat"
  },
  {
    "name": "MAHUVA JN",
    "code": "MHV",
    "utterances": [],
    "name_hi": "महुवा जन",
    "district": "Bhavnagar",
    "state": "Gujarat",
    "trainCount": "6",
    "latitude": 21.09412,
    "longitude": 71.756011,
    "address": "Mahuva, Gujarat"
  },
  {
    "name": "MACHROWAR",
    "code": "MHWL",
    "utterances": [],
    "name_hi": "मच्रोवर",
    "district": "",
    "state": "",
    "trainCount": "0",
    "latitude": "",
    "longitude": "",
    "address": ""
  },
  {
    "name": "MANIA",
    "code": "MIA",
    "utterances": [],
    "name_hi": "मेनिया",
    "district": "Dholpur",
    "state": "Rajasthan",
    "trainCount": "0",
    "latitude": 26.805806,
    "longitude": 77.91964999999999,
    "address": "Sattar Ka Pura, Rajasthan 328024"
  },
  {
    "name": "MIANGRAM",
    "code": "MIAN",
    "utterances": [],
    "name_hi": "मांगराम",
    "district": "Murshidabad",
    "state": "West Bengal",
    "trainCount": "0",
    "latitude": 23.853212000000003,
    "longitude": 88.17146,
    "address": "Bazarsau, West Bengal"
  },
  {
    "name": "MADHI",
    "code": "MID",
    "utterances": [],
    "name_hi": "मढ़ी",
    "district": "Surat",
    "state": "Gujarat",
    "trainCount": "2",
    "latitude": 21.145672,
    "longitude": 73.24268000000001,
    "address": "Madhi, Gujarat 394340"
  },
  {
    "name": "MIHRAWAN",
    "code": "MIH",
    "utterances": [],
    "name_hi": "मिहरवां",
    "district": "Jaunpur",
    "state": "Uttar Pradesh",
    "trainCount": "2",
    "latitude": 25.871178,
    "longitude": 82.694333,
    "address": "Nawab Yousuf Rd, Uttar Pradesh"
  },
  {
    "name": "MAJHDIA",
    "code": "MIJ",
    "utterances": [],
    "name_hi": "माझड़िअ",
    "district": "Nadia",
    "state": "West Bengal",
    "trainCount": "0",
    "latitude": 23.414561999999997,
    "longitude": 88.719031,
    "address": "Banpur-Majhdia Rd, West Bengal"
  },
  {
    "name": "MANIKUL",
    "code": "MIK",
    "utterances": [],
    "name_hi": "मणिकुल",
    "district": "",
    "state": "Jharkhand",
    "trainCount": "0",
    "latitude": 22.92049193793306,
    "longitude": 86.06679882384137,
    "address": "Bara Lakha, Jharkhand 832401"
  },
  {
    "name": "MILAK",
    "code": "MIL",
    "utterances": [],
    "name_hi": "मिलक",
    "district": "Rampur",
    "state": "Uttar Pradesh",
    "trainCount": "8",
    "latitude": 28.612475,
    "longitude": 79.16411699999999,
    "address": "Milak, Uttar Pradesh 243701"
  },
  {
    "name": "MANIRAM",
    "code": "MIM",
    "utterances": [],
    "name_hi": "मनीराम",
    "district": "Gorakhpur",
    "state": "Uttar Pradesh",
    "trainCount": "2",
    "latitude": 26.838267,
    "longitude": 83.342407,
    "address": "National Highway 29, Uttar Pradesh"
  },
  {
    "name": "MIHINPURWA",
    "code": "MIN",
    "utterances": [],
    "name_hi": "मिहींपुरवा",
    "district": "Bahraich",
    "state": "Uttar Pradesh",
    "trainCount": "1",
    "latitude": 28.0273441203,
    "longitude": 81.38446715209999,
    "address": "Mihinpurwa, Uttar Pradesh"
  },
  {
    "name": "MAIKALGANJ",
    "code": "MINJ",
    "utterances": [],
    "name_hi": "मैकलगंज",
    "district": "Lakhimpur Kheri",
    "state": "Uttar Pradesh",
    "trainCount": "6",
    "latitude": 27.7175372166,
    "longitude": 80.3378219061,
    "address": "Maigalganj, Uttar Pradesh 261505"
  },
  {
    "name": "MOLISAR",
    "code": "MIO",
    "utterances": [],
    "name_hi": "मोलीसर",
    "district": "Churu",
    "state": "Rajasthan",
    "trainCount": "2",
    "latitude": 28.13104,
    "longitude": 74.739025,
    "address": "Churu, Rajasthan"
  },
  {
    "name": "MIRHAKUR",
    "code": "MIQ",
    "utterances": [],
    "name_hi": "मिढ़ाकुर",
    "district": "Agra",
    "state": "Uttar Pradesh",
    "trainCount": "1",
    "latitude": 27.151203539700003,
    "longitude": 77.8660122473,
    "address": "Idgah Agra, Uttar Pradesh"
  },
  {
    "name": "MAIJAPUR",
    "code": "MIR",
    "utterances": [],
    "name_hi": "मैजापुर",
    "district": "Gonda",
    "state": "Uttar Pradesh",
    "trainCount": "0",
    "latitude": 27.141734,
    "longitude": 81.773788,
    "address": "Sumerpur, Uttar Pradesh"
  },
  {
    "name": "MIRA ROAD",
    "code": "MIRA",
    "utterances": [],
    "name_hi": "मीरा रोड",
    "district": "Mumbai Suburban",
    "state": "Maharashtra",
    "trainCount": "0",
    "latitude": 19.280299,
    "longitude": 72.856072,
    "address": "Mira Bhayandar, Maharashtra"
  },
  {
    "name": "MITHA",
    "code": "MITA",
    "utterances": [],
    "name_hi": "मीठा",
    "district": "",
    "state": "Gujarat",
    "trainCount": "0",
    "latitude": 24.083692287564645,
    "longitude": 71.68053437968648,
    "address": "Mitha, Gujarat 385560"
  },
  {
    "name": "MARIPAT",
    "code": "MIU",
    "utterances": [],
    "name_hi": "मारीपत",
    "district": "Gautam Buddha Nagar",
    "state": "Uttar Pradesh",
    "trainCount": "2",
    "latitude": 28.586886,
    "longitude": 77.495428,
    "address": "Sadullapur, Greater Noida, Uttar Pradesh 203207"
  },
  {
    "name": "MIGHAUNA",
    "code": "MIW",
    "utterances": [],
    "name_hi": "मिघौना",
    "district": "Pilibhit",
    "state": "Uttar Pradesh",
    "trainCount": "0",
    "latitude": 28.24322,
    "longitude": 79.826515,
    "address": "Mighauna, Uttar Pradesh"
  },
  {
    "name": "MARWAR JN",
    "code": "MJ",
    "utterances": [],
    "name_hi": "मारवाड़ जं",
    "district": "Pali",
    "state": "Rajasthan",
    "trainCount": "89",
    "latitude": 25.720478999999997,
    "longitude": 73.609301,
    "address": "Marwar Junction, Rajasthan"
  },
  {
    "name": "MEJA ROAD",
    "code": "MJA",
    "utterances": [],
    "name_hi": "मेजा रोड",
    "district": "Prayagraj",
    "state": "Uttar Pradesh",
    "trainCount": "10",
    "latitude": 25.221545,
    "longitude": 82.089337,
    "address": "Ram Nagar, Uttar Pradesh 212305"
  },
  {
    "name": "MAJBAT",
    "code": "MJBT",
    "utterances": [],
    "name_hi": "मजबत",
    "district": "Darrang",
    "state": "Assam",
    "trainCount": "4",
    "latitude": 26.784587,
    "longitude": 92.287814,
    "address": "Murkati, Assam 784507"
  },
  {
    "name": "MUJNAL",
    "code": "MJE",
    "utterances": [],
    "name_hi": "मुजनल",
    "district": "Jalpaiguri",
    "state": "West Bengal",
    "trainCount": "0",
    "latitude": 26.693327999999998,
    "longitude": 89.191957,
    "address": "National Highway 31C, West Bengal"
  },
  {
    "name": "MALKAJGIRI",
    "code": "MJF",
    "utterances": [],
    "name_hi": "मलकाजगिरी",
    "district": "Hyderabad",
    "state": "Telangana",
    "trainCount": "30",
    "latitude": 17.448392000000002,
    "longitude": 78.529606,
    "address": "1/30, Sanjeev Nagar, Malkajgiri, Secunderabad, Telangana 500003"
  },
  {
    "name": "MAJHAGAWAN",
    "code": "MJG",
    "utterances": [],
    "name_hi": "मझगवां",
    "district": "Satna",
    "state": "Madhya Pradesh",
    "trainCount": "8",
    "latitude": 24.913389000000002,
    "longitude": 80.811656,
    "address": "Majhgawa, Madhya Pradesh"
  },
  {
    "name": "MAJADA HALT",
    "code": "MJHL",
    "utterances": [],
    "name_hi": "मजदा हाल्ट",
    "district": "Moradabad",
    "state": "Uttar Pradesh",
    "trainCount": "0",
    "latitude": 28.461762,
    "longitude": 78.74320900000001,
    "address": "Majada Halt, Uttar Pradesh"
  },
  {
    "name": "MAJHIARI",
    "code": "MJHR",
    "utterances": [],
    "name_hi": "माझ्यारी",
    "district": "Prayagraj",
    "state": "Uttar Pradesh",
    "trainCount": "1",
    "latitude": 25.1789843066,
    "longitude": 81.5188330261,
    "address": "National Highway 76, Uttar Pradesh"
  },
  {
    "name": "MAJRI KHADAN",
    "code": "MJKN",
    "utterances": [],
    "name_hi": "मजरी खदान",
    "district": "",
    "state": "Maharashtra",
    "trainCount": "2",
    "latitude": 20.118640412437845,
    "longitude": 79.02647746797048,
    "address": "Shivajinagar, Maharashtra 442503"
  },
  {
    "name": "MAKUM JN",
    "code": "MJN",
    "utterances": [],
    "name_hi": "मकुम जन",
    "district": "Tinsukia",
    "state": "Assam",
    "trainCount": "2",
    "latitude": 27.485742,
    "longitude": 95.440958,
    "address": "Makum, Assam"
  },
  {
    "name": "MAJRI NANGAL",
    "code": "MJNL",
    "utterances": [],
    "name_hi": "मजरी नांगल",
    "district": "Rewari",
    "state": "Haryana",
    "trainCount": "0",
    "latitude": 28.013892963409766,
    "longitude": 76.55587419203975,
    "address": "State Highway 52, Rajasthan"
  },
  {
    "name": "MAJORDA",
    "code": "MJO",
    "utterances": [],
    "name_hi": "मजोरदा",
    "district": "South Goa",
    "state": "Goa",
    "trainCount": "0",
    "latitude": 15.314045,
    "longitude": 73.922408,
    "address": "South Goa, Goa"
  },
  {
    "name": "MOHARAJPUR",
    "code": "MJP",
    "utterances": [],
    "name_hi": "महाराजपुर",
    "district": "Sahibganj",
    "state": "Jharkhand",
    "trainCount": "0",
    "latitude": 25.219587,
    "longitude": 87.74030800000001,
    "address": "Moti Jharna, Jharkhand 816115"
  },
  {
    "name": "MANJHRA PURAB",
    "code": "MJPB",
    "utterances": [],
    "name_hi": "मंझरा पूरब",
    "district": "Lakhimpur Kheri",
    "state": "Uttar Pradesh",
    "trainCount": "0",
    "latitude": 28.300646,
    "longitude": 81.160402,
    "address": "Manjhra Purab, Uttar Pradesh"
  },
  {
    "name": "MINJUR",
    "code": "MJR",
    "utterances": [],
    "name_hi": "मिंजूर",
    "district": "Thiruvallur",
    "state": "Tamil Nadu",
    "trainCount": "0",
    "latitude": 13.281979,
    "longitude": 80.26019199999999,
    "address": "Ariyanvoyal, Minjur, Tamil Nadu 601203"
  },
  {
    "name": "MAJRI JN",
    "code": "MJRI",
    "utterances": [],
    "name_hi": "मजरी जन",
    "district": "Chandrapur",
    "state": "Maharashtra",
    "trainCount": "12",
    "latitude": 20.139283,
    "longitude": 79.043522,
    "address": "Palasgaon, Maharashtra 442503"
  },
  {
    "name": "MANJROL",
    "code": "MJRL",
    "utterances": [],
    "name_hi": "मंजरोल",
    "district": "",
    "state": "",
    "trainCount": "",
    "latitude": "",
    "longitude": "",
    "address": ""
  },
  {
    "name": "MANJESHWAR",
    "code": "MJS",
    "utterances": [],
    "name_hi": "मान्जेश्वर",
    "district": "Kasaragod",
    "state": "Kerala",
    "trainCount": "7",
    "latitude": 12.724197,
    "longitude": 74.887582,
    "address": "NH 17, Kerala"
  },
  {
    "name": "MAJERHAT",
    "code": "MJT",
    "utterances": [],
    "name_hi": "मजरहत",
    "district": "Howrah",
    "state": "West Bengal",
    "trainCount": "1",
    "latitude": 22.518978,
    "longitude": 88.322256,
    "address": "Alipore Mint Colony, Alipore, Kolkata, West Bengal 700053"
  },
  {
    "name": "MAJITHA",
    "code": "MJTA",
    "utterances": [],
    "name_hi": "मजीठा",
    "district": "Amritsar",
    "state": "Punjab",
    "trainCount": "0",
    "latitude": 31.75639665,
    "longitude": 74.95636935,
    "address": "Majitha, Punjab 143601"
  },
  {
    "name": "MANJHAGARH",
    "code": "MJV",
    "utterances": [],
    "name_hi": "मांझागढ़",
    "district": "Gopalganj",
    "state": "Bihar",
    "trainCount": "0",
    "latitude": 26.417226,
    "longitude": 84.504257,
    "address": "National Highway 28, Bihar"
  },
  {
    "name": "MARAMJHIRI",
    "code": "MJY",
    "utterances": [],
    "name_hi": "मरामझिरी",
    "district": "Betul",
    "state": "Madhya Pradesh",
    "trainCount": "1",
    "latitude": 21.946123,
    "longitude": 77.883002,
    "address": "Betul, Madhya Pradesh"
  },
  {
    "name": "MAJHOLA PAKARYA",
    "code": "MJZ",
    "utterances": [],
    "name_hi": "मझोले पकरया",
    "district": "Udham Singh Nagar",
    "state": "Uttarakhand",
    "trainCount": "5",
    "latitude": 28.831681000000003,
    "longitude": 79.899341,
    "address": "State Hiughway 29, Uttarakhand"
  },
  {
    "name": "MIRANPUR KATRA",
    "code": "MK",
    "utterances": [],
    "name_hi": "मीरानपुर कटरा",
    "district": "Shahjahanpur",
    "state": "Uttar Pradesh",
    "trainCount": "2",
    "latitude": 28.03708,
    "longitude": 79.674809,
    "address": "00, Islam Nagar, Katra, Uttar Pradesh 242301"
  },
  {
    "name": "MOKAMEH JN",
    "code": "MKA",
    "utterances": [],
    "name_hi": "मोकामः जन",
    "district": "Patna",
    "state": "Bihar",
    "trainCount": "101",
    "latitude": 25.391885,
    "longitude": 85.91304899999999,
    "address": "Railway Colony, Mokama, Mokameh Khas, Bihar 803302"
  },
  {
    "name": "MANKATHA",
    "code": "MKB",
    "utterances": [],
    "name_hi": "माणकथा",
    "district": "",
    "state": "Bihar",
    "trainCount": "10",
    "latitude": 25.207232670428873,
    "longitude": 86.05690053922707,
    "address": "Barhia English, Bihar 811311"
  },
  {
    "name": "MANWALA KOT BAK",
    "code": "MKBH",
    "utterances": [],
    "name_hi": "मनवाला कोट बाक",
    "district": "Bathinda",
    "state": "Punjab",
    "trainCount": "0",
    "latitude": 30.040498999999997,
    "longitude": 74.95205,
    "address": "Manwala Urf Kishangarh, Punjab 151301"
  },
  {
    "name": "MAKSI",
    "code": "MKC",
    "utterances": [],
    "name_hi": "मक्सी",
    "district": "Shajapur",
    "state": "Madhya Pradesh",
    "trainCount": "56",
    "latitude": 23.251625,
    "longitude": 76.159116,
    "address": "Maksi, Madhya Pradesh 465106"
  },
  {
    "name": "MARKUNDI",
    "code": "MKD",
    "utterances": [],
    "name_hi": "मारकुंडी",
    "district": "Kihunia",
    "state": "Uttar Pradesh",
    "trainCount": "1",
    "latitude": 25.01837130513475,
    "longitude": 80.94820705315051,
    "address": "State Highway 11, Madhya Pradesh"
  },
  {
    "name": "MAKUDI",
    "code": "MKDI",
    "utterances": [],
    "name_hi": "मकड़ी",
    "district": "Chandrapur",
    "state": "Maharashtra",
    "trainCount": "2",
    "latitude": 19.592555,
    "longitude": 79.44826,
    "address": "Subai, Maharashtra 442905"
  },
  {
    "name": "MALAKHERA",
    "code": "MKH",
    "utterances": [],
    "name_hi": "मालाखेड़ा",
    "district": "Alwar",
    "state": "Rajasthan",
    "trainCount": "8",
    "latitude": 27.390236,
    "longitude": 76.618982,
    "address": "Mala Khera, Rajasthan"
  },
  {
    "name": "MAKHI",
    "code": "MKHI",
    "utterances": [],
    "name_hi": "माखी",
    "district": "Unnao",
    "state": "Uttar Pradesh",
    "trainCount": "0",
    "latitude": 26.661427,
    "longitude": 80.46113700000001,
    "address": "Unnao, Uttar Pradesh"
  },
  {
    "name": "MARWAR KHARA",
    "code": "MKHR",
    "utterances": [],
    "name_hi": "मरवार खरा",
    "district": "Jodhpur",
    "state": "Rajasthan",
    "trainCount": "0",
    "latitude": 27.060569440800002,
    "longitude": 72.1300715057,
    "address": "Jodhpur, Rajasthan"
  },
  {
    "name": "MAKKAJIPALLI",
    "code": "MKJ",
    "utterances": [],
    "name_hi": "मक्काजीपालली",
    "district": "Anantapur",
    "state": "Andhra Pradesh",
    "trainCount": "0",
    "latitude": 14.19611832,
    "longitude": 77.62844748,
    "address": "Anantapuram, Andhra Pradesh 515164"
  },
  {
    "name": "KODAMBAKAM",
    "code": "MKK",
    "utterances": [],
    "name_hi": "कोडमबकम",
    "district": "Chennai",
    "state": "Tamil Nadu",
    "trainCount": "0",
    "latitude": 13.052565999999999,
    "longitude": 80.231305,
    "address": "Mambalam High Rd, Parthsarathy Puram, Parthasarathi Puram, Kodambakkam, Chennai, Tamil Nadu 600017"
  },
  {
    "name": "MAKLIDRUG",
    "code": "MKL",
    "utterances": [],
    "name_hi": "माक्लीदृग",
    "district": "Bangalore Rural",
    "state": "Karnataka",
    "trainCount": "0",
    "latitude": 13.4095451686,
    "longitude": 77.50903739809999,
    "address": "Kelaginajuganahalli, Karnataka 561203"
  },
  {
    "name": "MAKRAULI",
    "code": "MKLI",
    "utterances": [],
    "name_hi": "मकड़ौली",
    "district": "Rohtak",
    "state": "Haryana",
    "trainCount": "0",
    "latitude": 28.946971,
    "longitude": 76.62755,
    "address": "Rohtak, Haryana"
  },
  {
    "name": "MARIKUPPAM",
    "code": "MKM",
    "utterances": [],
    "name_hi": "मरीकुप्पम",
    "district": "Kolar",
    "state": "Karnataka",
    "trainCount": "2",
    "latitude": 12.918968,
    "longitude": 78.263789,
    "address": "Kolar Gold Fields, Karnataka"
  },
  {
    "name": "MAKRANA JN",
    "code": "MKN",
    "utterances": [],
    "name_hi": "मकराना जन",
    "district": "Nagaur",
    "state": "Rajasthan",
    "trainCount": "53",
    "latitude": 27.037532,
    "longitude": 74.72314899999999,
    "address": "Ratanpura, Makrana, Rajasthan 341505"
  },
  {
    "name": "MARKONA",
    "code": "MKO",
    "utterances": [],
    "name_hi": "मरकोना",
    "district": "Balasore",
    "state": "Odisha",
    "trainCount": "6",
    "latitude": 21.195555,
    "longitude": 86.596117,
    "address": "Markona, Odisha 756126"
  },
  {
    "name": "MANIKPUR",
    "code": "MKP",
    "utterances": [],
    "name_hi": "मानिकपुर",
    "district": "Chitrakoot",
    "state": "Uttar Pradesh",
    "trainCount": "73",
    "latitude": 25.063492,
    "longitude": 81.09365700000001,
    "address": "Manikpur, Uttar Pradesh"
  },
  {
    "name": "MUKTAPUR",
    "code": "MKPR",
    "utterances": [],
    "name_hi": "मुक्तापुर",
    "district": "Samastipur",
    "state": "Bihar",
    "trainCount": "0",
    "latitude": 25.884676,
    "longitude": 85.79556,
    "address": "Manipur, Bihar 848102"
  },
  {
    "name": "MALIKPETH",
    "code": "MKPT",
    "utterances": [],
    "name_hi": "मालिकपीठ",
    "district": "Solapur",
    "state": "Maharashtra",
    "trainCount": "0",
    "latitude": 17.87335995,
    "longitude": 75.63844499999999,
    "address": "Malikpeth, Maharashtra 413214"
  },
  {
    "name": "MADDIKERA",
    "code": "MKR",
    "utterances": [],
    "name_hi": "मददीकेरा",
    "district": "Kurnool",
    "state": "Andhra Pradesh",
    "trainCount": "6",
    "latitude": 15.256635000000001,
    "longitude": 77.411496,
    "address": "Guntakal, Andhra Pradesh"
  },
  {
    "name": "MAKRERA",
    "code": "MKRA",
    "utterances": [],
    "name_hi": "मकरेड़ा",
    "district": "Ajmer",
    "state": "Rajasthan",
    "trainCount": "0",
    "latitude": 26.310925310800002,
    "longitude": 74.5333715979,
    "address": "Kharwa, Rajasthan"
  },
  {
    "name": "MACHHAKUNDA",
    "code": "MKRD",
    "utterances": [],
    "name_hi": "मछकुंडा",
    "district": "Koraput",
    "state": "Odisha",
    "trainCount": "0",
    "latitude": 18.566875,
    "longitude": 82.666955,
    "address": "Padwa Rd, Odisha"
  },
  {
    "name": "MOTI KORAL",
    "code": "MKRL",
    "utterances": [],
    "name_hi": "मोती कोरल",
    "district": "Vadodara",
    "state": "Gujarat",
    "trainCount": "0",
    "latitude": 21.8348105,
    "longitude": 73.20600269999998,
    "address": "Moti Koral, Gujarat 393105"
  },
  {
    "name": "MAKRONIA",
    "code": "MKRN",
    "utterances": [],
    "name_hi": "मक्रोनिअ",
    "district": "Sagar",
    "state": "Madhya Pradesh",
    "trainCount": "8",
    "latitude": 23.867050000000003,
    "longitude": 78.80807700000001,
    "address": "Sagar, Madhya Pradesh 470004"
  },
  {
    "name": "MUKTSAR",
    "code": "MKS",
    "utterances": [],
    "name_hi": "मुक्तसर",
    "district": "Sri Muktsar Sahib",
    "state": "Punjab",
    "trainCount": "2",
    "latitude": 30.47821,
    "longitude": 74.514271,
    "address": "Muktsar, Punjab"
  },
  {
    "name": "MUKHASA PARUR",
    "code": "MKSP",
    "utterances": [],
    "name_hi": "मुखसे परूर",
    "district": "Cuddalore",
    "state": "Tamil Nadu",
    "trainCount": "0",
    "latitude": 11.566638000000001,
    "longitude": 79.240919,
    "address": "H68R+J96, Tamil Nadu 606104"
  },
  {
    "name": "MOKALSAR",
    "code": "MKSR",
    "utterances": [],
    "name_hi": "मोकलसर",
    "district": "Barmer",
    "state": "Rajasthan",
    "trainCount": "10",
    "latitude": 25.625350216,
    "longitude": 72.5180445245,
    "address": "Mokalsar, Rajasthan"
  },
  {
    "name": "MUKHTIAR BALWAR",
    "code": "MKT",
    "utterances": [],
    "name_hi": "मुख्त्यार बलवार",
    "district": "Indore",
    "state": "Madhya Pradesh",
    "trainCount": "0",
    "latitude": 22.398362,
    "longitude": 75.973751,
    "address": "SH 27, Madhya Pradesh"
  },
  {
    "name": "MALKAPUR",
    "code": "MKU",
    "utterances": [],
    "name_hi": "मलकपुर",
    "district": "Buldhana",
    "state": "Maharashtra",
    "trainCount": "65",
    "latitude": 20.891974,
    "longitude": 76.202946,
    "address": "Station Rd, Malkapur, Maharashtra 443101"
  },
  {
    "name": "MORAK",
    "code": "MKX",
    "utterances": [],
    "name_hi": "मोरक",
    "district": "Kota",
    "state": "Rajasthan",
    "trainCount": "8",
    "latitude": 24.730953,
    "longitude": 75.97333900000001,
    "address": "Kota, Rajasthan 326517"
  },
  {
    "name": "MEKKUDI",
    "code": "MKY",
    "utterances": [],
    "name_hi": "मेक्कुडी",
    "district": "Tiruchirappalli",
    "state": "Tamil Nadu",
    "trainCount": "0",
    "latitude": 10.87109,
    "longitude": 78.628737,
    "address": "Nagappattinam - Trichy - Karur- Coimbatore - Mettupalayam - Ooty - Gundlupet Road(Vandikara Street), Tamil Nadu"
  },
  {
    "name": "MAHKEPAR RD P H",
    "code": "MKZ",
    "utterances": [],
    "name_hi": "महकपर रद प ह",
    "district": "Balaghat",
    "state": "Madhya Pradesh",
    "trainCount": "0",
    "latitude": 21.632916,
    "longitude": 79.67892,
    "address": "Kisanpura, Madhya Pradesh 481449"
  },
  {
    "name": "MALHOUR",
    "code": "ML",
    "utterances": [],
    "name_hi": "मल्हौर",
    "district": "Lucknow",
    "state": "Uttar Pradesh",
    "trainCount": "1",
    "latitude": 26.8534491635,
    "longitude": 81.0404752448,
    "address": "Bara Bharwara, Viraj Khand, Gomti Nagar, Lucknow, Uttar Pradesh 226010"
  },
  {
    "name": "MODNIMB",
    "code": "MLB",
    "utterances": [],
    "name_hi": "मोड़निम्ब",
    "district": "Solapur",
    "state": "Maharashtra",
    "trainCount": "6",
    "latitude": 17.9165477096,
    "longitude": 75.4055439008,
    "address": "Shetfal, Maharashtra"
  },
  {
    "name": "MALKISAR",
    "code": "MLC",
    "utterances": [],
    "name_hi": "मलकीसर",
    "district": "Bikaner",
    "state": "Rajasthan",
    "trainCount": "0",
    "latitude": 28.654232,
    "longitude": 73.862645,
    "address": "Bikaner, Rajasthan"
  },
  {
    "name": "MALIHABAD",
    "code": "MLD",
    "utterances": [],
    "name_hi": "मलिहाबाद",
    "district": "Lucknow",
    "state": "Uttar Pradesh",
    "trainCount": "6",
    "latitude": 26.930598,
    "longitude": 80.71503200000001,
    "address": "WPJ8+72Q, amaniganj, Malihabad, Uttar Pradesh"
  },
  {
    "name": "MADLAUDA",
    "code": "MLDE",
    "utterances": [],
    "name_hi": "मडलौडा",
    "district": "Panipat",
    "state": "Haryana",
    "trainCount": "0",
    "latitude": 29.399824,
    "longitude": 76.809711,
    "address": "Panipat, Haryana"
  },
  {
    "name": "MALDA TOWN",
    "code": "MLDT",
    "utterances": [],
    "name_hi": "मालदा टाउन",
    "district": "Malda",
    "state": "West Bengal",
    "trainCount": "118",
    "latitude": 25.015659,
    "longitude": 88.130338,
    "address": "Malda, West Bengal 732101"
  },
  {
    "name": "MALDA COURT",
    "code": "MLFC",
    "utterances": [],
    "name_hi": "मालदा कोर्ट",
    "district": "",
    "state": "West Bengal",
    "trainCount": "0",
    "latitude": 25.011542388488916,
    "longitude": 88.16268255271694,
    "address": "Rasiladaha P, West Bengal 732101"
  },
  {
    "name": "MALHARGARH",
    "code": "MLG",
    "utterances": [],
    "name_hi": "मल्हारगढ़",
    "district": "Mandsaur",
    "state": "Madhya Pradesh",
    "trainCount": "4",
    "latitude": 24.265618,
    "longitude": 74.972666,
    "address": "Malhargarh, Madhya Pradesh"
  },
  {
    "name": "MALLAPPA GATE H",
    "code": "MLGT",
    "utterances": [],
    "name_hi": "मल्लप्पा गेट ः",
    "district": "Anantapur",
    "state": "Andhra Pradesh",
    "trainCount": "0",
    "latitude": 15.225027,
    "longitude": 77.387152,
    "address": "Guntakal, Andhra Pradesh"
  },
  {
    "name": "MALIYA HATINA",
    "code": "MLHA",
    "utterances": [],
    "name_hi": "मालिया हतिना",
    "district": "Junagadh",
    "state": "Gujarat",
    "trainCount": "12",
    "latitude": 21.15957,
    "longitude": 70.29970100000001,
    "address": "Malia, Gujarat"
  },
  {
    "name": "MANGALIYAWAS",
    "code": "MLI",
    "utterances": [],
    "name_hi": "मांगलियावास",
    "district": "Ajmer",
    "state": "Rajasthan",
    "trainCount": "0",
    "latitude": 26.278197000000002,
    "longitude": 74.492705,
    "address": "Mangaliyawas, Rajasthan"
  },
  {
    "name": "MOHANLALGANJ",
    "code": "MLJ",
    "utterances": [],
    "name_hi": "मोहनलालगंज",
    "district": "Lucknow",
    "state": "Uttar Pradesh",
    "trainCount": "2",
    "latitude": 26.687033,
    "longitude": 80.984093,
    "address": "MXPM+QJP, Mohanlalganj, Uttar Pradesh 226301"
  },
  {
    "name": "MALKAPURAM",
    "code": "MLK",
    "utterances": [],
    "name_hi": "मलकपुरम",
    "district": "Kurnool",
    "state": "Andhra Pradesh",
    "trainCount": "0",
    "latitude": 15.368943999999999,
    "longitude": 77.96755599999999,
    "address": "Gooty Rd, Malkapuram, Andhra Pradesh 518222"
  },
  {
    "name": "MALUKA",
    "code": "MLKA",
    "utterances": [],
    "name_hi": "मलूका",
    "district": "Pashchimi Singhbhum",
    "state": "Jharkhand",
    "trainCount": "0",
    "latitude": 22.202912,
    "longitude": 85.672936,
    "address": "Jaipur, Jharkhand"
  },
  {
    "name": "MULEWAL KHAIHRA",
    "code": "MLKH",
    "utterances": [],
    "name_hi": "मुलेवाल खैहरा",
    "district": "Jalandhar",
    "state": "Punjab",
    "trainCount": "0",
    "latitude": 31.102966,
    "longitude": 75.29969399999999,
    "address": "Neewa Meianwal, Punjab"
  },
  {
    "name": "MALIKPUR",
    "code": "MLKP",
    "utterances": [],
    "name_hi": "मलिकपुर",
    "district": "Farrukhabad",
    "state": "Uttar Pradesh",
    "trainCount": "0",
    "latitude": 27.161781,
    "longitude": 79.690181,
    "address": "SH 29A, Malik Pur, Uttar Pradesh 209735"
  },
  {
    "name": "MALTHAN",
    "code": "MLM",
    "utterances": [],
    "name_hi": "मालथान",
    "district": "Pune",
    "state": "Maharashtra",
    "trainCount": "0",
    "latitude": 18.3689511683,
    "longitude": 74.7243673877,
    "address": "Malthan, Maharashtra 413130"
  },
  {
    "name": "MAILANI",
    "code": "MLN",
    "utterances": [],
    "name_hi": "मैलानी",
    "district": "Lakhimpur Kheri",
    "state": "Uttar Pradesh",
    "trainCount": "1",
    "latitude": 28.284349000000002,
    "longitude": 80.347318,
    "address": "Lakhimpur Kheri, Uttar Pradesh"
  },
  {
    "name": "MULUND",
    "code": "MLND",
    "utterances": [],
    "name_hi": "मुलुंड",
    "district": "Mumbai Suburban",
    "state": "Maharashtra",
    "trainCount": "0",
    "latitude": 19.17541395,
    "longitude": 72.94933954999999,
    "address": "B Parduman Singh Rd, Mulund, Mulund West, Mumbai, Maharashtra 400080"
  },
  {
    "name": "MALUR",
    "code": "MLO",
    "utterances": [],
    "name_hi": "मलूर",
    "district": "Kolar",
    "state": "Karnataka",
    "trainCount": "15",
    "latitude": 12.992108,
    "longitude": 77.940033,
    "address": "Kolar, Karnataka 563160"
  },
  {
    "name": "MALLAPUR",
    "code": "MLP",
    "utterances": [],
    "name_hi": "मल्लापुर",
    "district": "Gadag",
    "state": "Karnataka",
    "trainCount": "4",
    "latitude": 15.672447,
    "longitude": 75.610219,
    "address": "State Highway 30, Karnataka"
  },
  {
    "name": "MALIPUR",
    "code": "MLPR",
    "utterances": [],
    "name_hi": "मालीपुर",
    "district": "Ambedkar Nagar",
    "state": "Uttar Pradesh",
    "trainCount": "18",
    "latitude": 26.281482,
    "longitude": 82.63130000000001,
    "address": "Malipur, Uttar Pradesh 224159"
  },
  {
    "name": "MALKERA JN",
    "code": "MLQ",
    "utterances": [],
    "name_hi": "मालकेरा जन",
    "district": "Dhanbad",
    "state": "Jharkhand",
    "trainCount": "0",
    "latitude": 23.779733,
    "longitude": 86.29694900000001,
    "address": "National Highway 32, Jharkhand"
  },
  {
    "name": "MALKHED",
    "code": "MLR",
    "utterances": [],
    "name_hi": "मलखेड",
    "district": "",
    "state": "Maharashtra",
    "trainCount": "0",
    "latitude": 20.822389217035095,
    "longitude": 77.86494598568584,
    "address": "RVFF+G8X, Amravati, Maharashtra 444701"
  },
  {
    "name": "MALASA",
    "code": "MLS",
    "utterances": [],
    "name_hi": "मलसा",
    "district": "Kanpur Dehat",
    "state": "Uttar Pradesh",
    "trainCount": "1",
    "latitude": 26.28889,
    "longitude": 79.907312,
    "address": "Deega, Uttar Pradesh 209312"
  },
  {
    "name": "MALLASANDRA",
    "code": "MLSA",
    "utterances": [],
    "name_hi": "मल्लसंद्र",
    "district": "Tumakuru",
    "state": "Karnataka",
    "trainCount": "0",
    "latitude": 13.335173,
    "longitude": 77.015018,
    "address": "NH 206, Karnataka"
  },
  {
    "name": "MALSAR",
    "code": "MLSR",
    "utterances": [],
    "name_hi": "मालसर",
    "district": "Vadodara",
    "state": "Gujarat",
    "trainCount": "0",
    "latitude": 21.88940753391553,
    "longitude": 73.31641039811075,
    "address": "Sinor, Gujarat"
  },
  {
    "name": "MALSAILU",
    "code": "MLSU",
    "utterances": [],
    "name_hi": "मालसैलु",
    "district": "Hingoli",
    "state": "Maharashtra",
    "trainCount": "0",
    "latitude": 19.8680489165,
    "longitude": 77.1232376385,
    "address": "Hingoli, Maharashtra"
  },
  {
    "name": "MALATIPATPUR",
    "code": "MLT",
    "utterances": [],
    "name_hi": "मलटीपतपुर",
    "district": "",
    "state": "Odisha",
    "trainCount": "1",
    "latitude": 19.86605652656471,
    "longitude": 85.83127599495438,
    "address": "Maltipatpur, Odisha 752008"
  },
  {
    "name": "MALATAJ",
    "code": "MLTJ",
    "utterances": [],
    "name_hi": "मलतज",
    "district": "",
    "state": "Gujarat",
    "trainCount": "",
    "latitude": 22.5806304,
    "longitude": 72.7476239,
    "address": "Malataj, Gujarat 387220"
  },
  {
    "name": "MELATTUR",
    "code": "MLTR",
    "utterances": [],
    "name_hi": "मेलटुर",
    "district": "Malappuram",
    "state": "Kerala",
    "trainCount": "2",
    "latitude": 11.06543,
    "longitude": 76.272805,
    "address": "Melattoor, Kerala"
  },
  {
    "name": "MALUGUR",
    "code": "MLU",
    "utterances": [],
    "name_hi": "मालगुर",
    "district": "Anantapur",
    "state": "Andhra Pradesh",
    "trainCount": "0",
    "latitude": 13.866614,
    "longitude": 77.531591,
    "address": "Manesamudram, Andhra Pradesh"
  },
  {
    "name": "MALLARPUR",
    "code": "MLV",
    "utterances": [],
    "name_hi": "मल्लारपुर",
    "district": "Birbhum",
    "state": "West Bengal",
    "trainCount": "8",
    "latitude": 24.080029,
    "longitude": 87.726275,
    "address": "Bharkata, Fatehpur, West Bengal 731216"
  },
  {
    "name": "MALLANWAN",
    "code": "MLW",
    "utterances": [],
    "name_hi": "मल्लांवान",
    "district": "Hardoi",
    "state": "Uttar Pradesh",
    "trainCount": "0",
    "latitude": 27.0362379616,
    "longitude": 80.1583349207,
    "address": "Mallawan, Uttar Pradesh"
  },
  {
    "name": "MAULA ALI",
    "code": "MLY",
    "utterances": [],
    "name_hi": "मौला अली",
    "district": "Hyderabad",
    "state": "Telangana",
    "trainCount": "13",
    "latitude": 17.44041,
    "longitude": 78.55054100000001,
    "address": "CHR2+35Q, Durga Nagar, Nacharam, Secunderabad, Telangana 500047"
  },
  {
    "name": "MELNARIYAPANUR",
    "code": "MLYR",
    "utterances": [],
    "name_hi": "मेलनारियापानूर",
    "district": "Viluppuram",
    "state": "Tamil Nadu",
    "trainCount": "0",
    "latitude": 11.615910999999999,
    "longitude": 78.814791,
    "address": "Melnariyapanur, Tamil Nadu 606201"
  },
  {
    "name": "MALARNA",
    "code": "MLZ",
    "utterances": [],
    "name_hi": "मलारना",
    "district": "Sawai Madhopur",
    "state": "Rajasthan",
    "trainCount": "6",
    "latitude": 26.231078,
    "longitude": 76.534634,
    "address": "Sawai Madhopur, Rajasthan"
  },
  {
    "name": "BMBY MAHIM JN",
    "code": "MM",
    "utterances": [],
    "name_hi": "बम्बी महिम जन",
    "district": "Mumbai Suburban",
    "state": "Maharashtra",
    "trainCount": "0",
    "latitude": 19.040547,
    "longitude": 72.84687600000001,
    "address": "Mumbai, Maharashtra"
  },
  {
    "name": "MUHAMMADABAD",
    "code": "MMA",
    "utterances": [],
    "name_hi": "मुहम्मदाबाद",
    "district": "Mau",
    "state": "Uttar Pradesh",
    "trainCount": "18",
    "latitude": 26.026235,
    "longitude": 83.376007,
    "address": "Muhammadabad Gohna, Uttar Pradesh 276403"
  },
  {
    "name": "MAHMUDABAD AVDH",
    "code": "MMB",
    "utterances": [],
    "name_hi": "महमूदाबाद अवध",
    "district": "Sitapur",
    "state": "Uttar Pradesh",
    "trainCount": "4",
    "latitude": 27.288294999999998,
    "longitude": 81.114404,
    "address": "Mahmudabad, Uttar Pradesh 261203"
  },
  {
    "name": "MAHAMANDIR",
    "code": "MMC",
    "utterances": [],
    "name_hi": "महामंदिर",
    "district": "Jodhpur",
    "state": "Rajasthan",
    "trainCount": "0",
    "latitude": 26.3087448868,
    "longitude": 73.037935174,
    "address": "Jodhpur, Rajasthan"
  },
  {
    "name": "MAHESHMUNDA",
    "code": "MMD",
    "utterances": [],
    "name_hi": "महेशमुंडा",
    "district": "Giridih",
    "state": "Jharkhand",
    "trainCount": "0",
    "latitude": 24.232416,
    "longitude": 86.38903300000001,
    "address": "Maheshmunda, Jharkhand"
  },
  {
    "name": "MUTHALAMADA",
    "code": "MMDA",
    "utterances": [],
    "name_hi": "मुतलमाड़ा",
    "district": "Palakkad",
    "state": "Kerala",
    "trainCount": "4",
    "latitude": 10.626386,
    "longitude": 76.77172300000001,
    "address": "Muthalamada South"
  },
  {
    "name": "MUL MARORA",
    "code": "MME",
    "utterances": [],
    "name_hi": "मूल मरोरा",
    "district": "Chandrapur",
    "state": "Maharashtra",
    "trainCount": "4",
    "latitude": 20.053466,
    "longitude": 79.65827900000001,
    "address": "Mul, Maharashtra"
  },
  {
    "name": "MADHYAMGRAM",
    "code": "MMG",
    "utterances": [],
    "name_hi": "मध्यमग्राम",
    "district": "North 24 Parganas",
    "state": "West Bengal",
    "trainCount": "0",
    "latitude": 22.693938,
    "longitude": 88.45225400000001,
    "address": "Kolkata, West Bengal"
  },
  {
    "name": "MAHADANAPURAM",
    "code": "MMH",
    "utterances": [],
    "name_hi": "महादनपुरम",
    "district": "Karur",
    "state": "Tamil Nadu",
    "trainCount": "1",
    "latitude": 10.953711,
    "longitude": 78.299178,
    "address": "Nagappattinam - Gundlupet Road(Vandikara Street), Tamil Nadu"
  },
  {
    "name": "MARIYAMANAHALLI",
    "code": "MMI",
    "utterances": [],
    "name_hi": "मरियमानहल्ली",
    "district": "Ballari",
    "state": "Karnataka",
    "trainCount": "0",
    "latitude": 15.160659950000001,
    "longitude": 76.35458,
    "address": "HOSAPET ROAD mariyammanahali, Hosapete, Karnataka 583201"
  },
  {
    "name": "MADURANTAKAM",
    "code": "MMK",
    "utterances": [],
    "name_hi": "मदुरान्तकं",
    "district": "Chengalpattu",
    "state": "Tamil Nadu",
    "trainCount": "6",
    "latitude": 12.50442,
    "longitude": 79.89308700000001,
    "address": "Maduranthakam, Tamil Nadu 603306"
  },
  {
    "name": "MADAN MAHAL",
    "code": "MML",
    "utterances": [],
    "name_hi": "मदन महल",
    "district": "Jabalpur",
    "state": "Madhya Pradesh",
    "trainCount": "28",
    "latitude": 23.159475,
    "longitude": 79.920425,
    "address": "Jabalpur, Madhya Pradesh"
  },
  {
    "name": "MAHUAMILAN",
    "code": "MMLN",
    "utterances": [],
    "name_hi": "महुआमिलन",
    "district": "Latehar",
    "state": "Jharkhand",
    "trainCount": "0",
    "latitude": 23.662240999999998,
    "longitude": 84.854527,
    "address": "Malhan, Jharkhand 829210"
  },